{"copyright":"Copyright 2021 MLB Advanced Media, L.P.  Use of any content on this page acknowledges agreement to the terms posted here http://gdx.mlb.com/components/copyright.txt","venues":[{"id":5204,"name":"Cleveland Arena","link":"/api/v1/venues/5204","location":{"city":"Cleveland","state":"Ohio","stateAbbrev":"OH"},"timeZone":{"id":"America/New_York","offset":-5,"tz":"EST"}},{"id":5213,"name":"Municipal Auditorium","link":"/api/v1/venues/5213","location":{"city":"Philadelphia","state":"Pennsylvania","stateAbbrev":"PA"},"timeZone":{"id":"America/New_York","offset":-5,"tz":"EST"}},{"id":5214,"name":"San Francisco Civic Auditorium","link":"/api/v1/venues/5214","location":{"city":"San Francisco","state":"California","stateAbbrev":"CA"},"timeZone":{"id":"America/Los_Angeles","offset":-8,"tz":"PST"}},{"id":5215,"name":"San Diego Sports Arena","link":"/api/v1/venues/5215","location":{"city":"San Diego","state":"California","stateAbbrev":"CA"},"timeZone":{"id":"America/Los_Angeles","offset":-8,"tz":"PST"}},{"id":5216,"name":"Hofheinz Pavilion","link":"/api/v1/venues/5216","location":{"city":"Houston","state":"Texas","stateAbbrev":"TX"},"timeZone":{"id":"America/Chicago","offset":-6,"tz":"CST"}},{"id":5217,"name":"Compaq Center","link":"/api/v1/venues/5217","location":{"city":"Houston","state":"Texas","stateAbbrev":"TX"},"timeZone":{"id":"America/Chicago","offset":-6,"tz":"CST"}},{"id":5218,"name":"Indiana State Fairgrounds Coliseum","link":"/api/v1/venues/5218","location":{"city":"Indianapolis","state":"Indiana","stateAbbrev":"IN"},"timeZone":{"id":"America/Indiana/Indianapolis","offset":-6,"tz":"CST"}},{"id":5219,"name":"Market Square Arena","link":"/api/v1/venues/5219","location":{"city":"Indianapolis","state":"Indiana","stateAbbrev":"IN"},"timeZone":{"id":"America/Indiana/Indianapolis","offset":-6,"tz":"CST"}},{"id":5220,"name":"Minneapolis Auditorium","link":"/api/v1/venues/5220","location":{"city":"Minneapolis","state":"Minnesota","stateAbbrev":"MN"},"timeZone":{"id":"America/Chicago","offset":-6,"tz":"CST"}},{"id":5221,"name":"Minneapolis Armory","link":"/api/v1/venues/5221","location":{"city":"Minneapolis","state":"Minnesota","stateAbbrev":"MN"},"timeZone":{"id":"America/Chicago","offset":-6,"tz":"CST"}},{"id":5222,"name":"Pyramid Arena","link":"/api/v1/venues/5222","location":{"city":"Memphis","state":"Tennessee","stateAbbrev":"TN"},"timeZone":{"id":"America/Chicago","offset":-6,"tz":"CST"}},{"id":5223,"name":"KeyArena at Seattle Center","link":"/api/v1/venues/5223","location":{"city":"Seattle","state":"Washington","stateAbbrev":"WA"},"timeZone":{"id":"America/Los_Angeles","offset":-8,"tz":"PST"}},{"id":5224,"name":"Tacoma Dome","link":"/api/v1/venues/5224","location":{"city":"Tacoma","state":"Washington","stateAbbrev":"WA"},"timeZone":{"id":"America/Los_Angeles","offset":-8,"tz":"PST"}},{"id":5225,"name":"Amway Arena","link":"/api/v1/venues/5225","location":{"city":"Orlando","state":"Florida","stateAbbrev":"FL"},"timeZone":{"id":"America/New_York","offset":-5,"tz":"EST"}},{"id":5226,"name":"State Fair Coliseum","link":"/api/v1/venues/5226","location":{"city":"Syracuse","state":"New York","stateAbbrev":"NY"},"timeZone":{"id":"America/New_York","offset":-5,"tz":"EST"}},{"id":5227,"name":"Oncenter War Memorial Arena","link":"/api/v1/venues/5227","location":{"city":"Syracuse","state":"New York","stateAbbrev":"NY"},"timeZone":{"id":"America/New_York","offset":-5,"tz":"EST"}},{"id":5228,"name":"Arizona Veterans Memorial Coliseum","link":"/api/v1/venues/5228","location":{"city":"Phoenix","state":"Arizona","stateAbbrev":"AZ"},"timeZone":{"id":"America/Phoenix","offset":-7,"tz":"MST"}},{"id":5229,"name":"Wharton Fieldhouse","link":"/api/v1/venues/5229","location":{"city":"Moline","state":"Illinois","stateAbbrev":"IL"},"timeZone":{"id":"America/Chicago","offset":-6,"tz":"CST"}},{"id":5230,"name":"MECCA Arena","link":"/api/v1/venues/5230","location":{"city":"Milwaukee","state":"Wisconsin","stateAbbrev":"WI"},"timeZone":{"id":"America/Chicago","offset":-6,"tz":"CST"}},{"id":5231,"name":"Kiel Auditorium","link":"/api/v1/venues/5231","location":{"city":"St. Louis","state":"Missouri","stateAbbrev":"MO"},"timeZone":{"id":"America/Chicago","offset":-6,"tz":"CST"}},{"id":5232,"name":"Alexander Coliseum","link":"/api/v1/venues/5232","location":{"city":"Atlanta","state":"Georgia","stateAbbrev":"GA"},"timeZone":{"id":"America/New_York","offset":-5,"tz":"EST"}},{"id":5233,"name":"Teaneck Armory","link":"/api/v1/venues/5233","location":{"city":"Teaneck","state":"New Jersey","stateAbbrev":"NJ"},"timeZone":{"id":"America/New_York","offset":-5,"tz":"EST"}},{"id":5234,"name":"Long Island Arena","link":"/api/v1/venues/5234","location":{"city":"Commack","state":"New York","stateAbbrev":"NY"},"timeZone":{"id":"America/New_York","offset":-5,"tz":"EST"}},{"id":5235,"name":"Island Garden","link":"/api/v1/venues/5235","location":{"city":"West Hempstead","state":"New York","stateAbbrev":"NY"},"timeZone":{"id":"America/New_York","offset":-5,"tz":"EST"}},{"id":5236,"name":"Rutgers Athletic Center","link":"/api/v1/venues/5236","location":{"city":"Piscataway","state":"New Jersey","stateAbbrev":"NJ"},"timeZone":{"id":"America/New_York","offset":-5,"tz":"EST"}},{"id":5237,"name":"Izod Center","link":"/api/v1/venues/5237","location":{"city":"East Rutherford","state":"New Jersey","stateAbbrev":"NJ"},"timeZone":{"id":"America/New_York","offset":-5,"tz":"EST"}},{"id":4589,"name":"Sydney Cricket Ground","link":"/api/v1/venues/4589","location":{"city":"Sydney"},"timeZone":{"id":"Australia/Sydney","offset":11,"tz":"AEDT"}},{"id":2866,"name":"FirstEnergy Park","link":"/api/v1/venues/2866","location":{"city":"Lakewood","state":"New Jersey","stateAbbrev":"NJ"},"timeZone":{"id":"America/New_York","offset":-5,"tz":"EST"}},{"id":2929,"name":"Estadio Alberto Romo Chavez","link":"/api/v1/venues/2929","location":{"city":"Aguascalientes","stateAbbrev":"MX"},"timeZone":{"id":"America/Mexico_City","offset":-6,"tz":"CST"}},{"id":3269,"name":"Gezer Field","link":"/api/v1/venues/3269","location":{"city":"Jerusalem"},"timeZone":{"id":"Asia/Jerusalem","offset":2,"tz":"EET"}},{"id":3270,"name":"Sportek Baseball Field","link":"/api/v1/venues/3270","location":{"city":"Tel Aviv"},"timeZone":{"id":"Asia/Jerusalem","offset":2,"tz":"EET"}},{"id":3271,"name":"Yarkon Sports Complex","link":"/api/v1/venues/3271","location":{"city":"Petach Tikva"},"timeZone":{"id":"Asia/Jerusalem","offset":2,"tz":"EET"}},{"id":4510,"name":"Estadio Sonora","link":"/api/v1/venues/4510","location":{"city":"Hermosillo","stateAbbrev":"MX"},"timeZone":{"id":"America/Hermosillo","offset":-7,"tz":"MST"}},{"id":4469,"name":"Alamodome","link":"/api/v1/venues/4469","location":{"city":"San Antonio","state":"Texas","stateAbbrev":"TX"},"timeZone":{"id":"America/Chicago","offset":-6,"tz":"CST"}},{"id":4350,"name":"Suplizio Field","link":"/api/v1/venues/4350","location":{"city":"Grand Junction","state":"Colorado","stateAbbrev":"CO"},"timeZone":{"id":"America/Denver","offset":-7,"tz":"MST"}},{"id":3512,"name":"Wukesong Baseball Stadium","link":"/api/v1/venues/3512","location":{"city":"Beijing","stateAbbrev":"CN"},"timeZone":{"id":"Asia/Shanghai","offset":8,"tz":"CST"}},{"id":4720,"name":"Artillery Park","link":"/api/v1/venues/4720","location":{"city":"Wilkes-Barre","state":"Pennsylvania","stateAbbrev":"PA"},"timeZone":{"id":"America/New_York","offset":-5,"tz":"EST"}},{"id":4721,"name":"Athletic Park","link":"/api/v1/venues/4721","location":{"city":"Scranton","state":"Pennsylvania","stateAbbrev":"PA"},"timeZone":{"id":"America/New_York","offset":-5,"tz":"EST"}},{"id":4722,"name":"Bay Street Ball Grounds","link":"/api/v1/venues/4722","location":{"city":"Rochester","state":"New York","stateAbbrev":"NY"},"timeZone":{"id":"America/New_York","offset":-5,"tz":"EST"}},{"id":4723,"name":"Bill Wigle Field","link":"/api/v1/venues/4723","location":{"city":"Boise","state":"Idaho","stateAbbrev":"ID"},"timeZone":{"id":"America/Boise","offset":-7,"tz":"MST"}},{"id":4724,"name":"Bob Hoffman Stadium","link":"/api/v1/venues/4724","location":{"city":"York","state":"Pennsylvania","stateAbbrev":"PA"},"timeZone":{"id":"America/New_York","offset":-5,"tz":"EST"}},{"id":4725,"name":"Browning-Leonard Park","link":"/api/v1/venues/4725","location":{"city":"Harlan","state":"Kentucky","stateAbbrev":"KY"},"timeZone":{"id":"America/New_York","offset":-5,"tz":"EST"}},{"id":4726,"name":"Chemeteka Community College","link":"/api/v1/venues/4726","location":{"city":"Salem","state":"Oregon","stateAbbrev":"OR"},"timeZone":{"id":"America/Los_Angeles","offset":-8,"tz":"PST"}},{"id":4727,"name":"Clark Field","link":"/api/v1/venues/4727","location":{"city":"Lafayette","state":"Louisiana","stateAbbrev":"LA"},"timeZone":{"id":"America/Chicago","offset":-6,"tz":"CST"}},{"id":4728,"name":"Clyde Allen Field","link":"/api/v1/venues/4728","location":{"city":"Coos Bay","state":"Oregon","stateAbbrev":"OR"},"timeZone":{"id":"America/Los_Angeles","offset":-8,"tz":"PST"}},{"id":4729,"name":"Devereaux Meadow","link":"/api/v1/venues/4729","location":{"city":"Raleigh","state":"North Carolina","stateAbbrev":"NC"},"timeZone":{"id":"America/New_York","offset":-5,"tz":"EST"}},{"id":4730,"name":"Dobyns-Bennett High School","link":"/api/v1/venues/4730","location":{"city":"Kingsport","state":"Tennessee","stateAbbrev":"TN"},"timeZone":{"id":"America/New_York","offset":-5,"tz":"EST"}},{"id":4732,"name":"Durkee Field","link":"/api/v1/venues/4732","location":{"city":"Jacksonville","state":"Florida","stateAbbrev":"FL"},"timeZone":{"id":"America/New_York","offset":-5,"tz":"EST"}},{"id":4733,"name":"Island Field","link":"/api/v1/venues/4733","location":{"city":"Harrisburg","state":"Pennsylvania","stateAbbrev":"PA"},"timeZone":{"id":"America/New_York","offset":-5,"tz":"EST"}},{"id":4734,"name":"Jennings Stadium","link":"/api/v1/venues/4734","location":{"city":"Augusta","state":"Georgia","stateAbbrev":"GA"},"timeZone":{"id":"America/New_York","offset":-5,"tz":"EST"}},{"id":4735,"name":"John Affleck Park","link":"/api/v1/venues/4735","location":{"city":"Ogden","state":"Utah","stateAbbrev":"UT"},"timeZone":{"id":"America/Denver","offset":-7,"tz":"MST"}},{"id":4736,"name":"Johnson Field","link":"/api/v1/venues/4736","location":{"city":"Binghamton","state":"New York","stateAbbrev":"NY"},"timeZone":{"id":"America/New_York","offset":-5,"tz":"EST"}},{"id":4737,"name":"Lauer's Park","link":"/api/v1/venues/4737","location":{"city":"Reading/Albany","state":"Pennsylvania","stateAbbrev":"PA"},"timeZone":{"id":"America/New_York","offset":-5,"tz":"EST"}},{"id":4738,"name":"Lawrence Stadium","link":"/api/v1/venues/4738","location":{"city":"Portsmouth","state":"Virginia","stateAbbrev":"VA"},"timeZone":{"id":"America/New_York","offset":-5,"tz":"EST"}},{"id":4739,"name":"League Park","link":"/api/v1/venues/4739","location":{"city":"Mobile","state":"Alabama","stateAbbrev":"AL"},"timeZone":{"id":"America/Chicago","offset":-6,"tz":"CST"}},{"id":4740,"name":"Marion High School","link":"/api/v1/venues/4740","location":{"city":"Marion","state":"Virginia","stateAbbrev":"VA"},"timeZone":{"id":"America/New_York","offset":-5,"tz":"EST"}},{"id":4741,"name":"Max Hess Stadium","link":"/api/v1/venues/4741","location":{"city":"Allentown","state":"Pennsylvania","stateAbbrev":"PA"},"timeZone":{"id":"America/New_York","offset":-5,"tz":"EST"}},{"id":4742,"name":"McConnell Field","link":"/api/v1/venues/4742","location":{"city":"Utica","state":"New York","stateAbbrev":"NY"},"timeZone":{"id":"America/New_York","offset":-5,"tz":"EST"}},{"id":4743,"name":"McNearney Stadium","link":"/api/v1/venues/4743","location":{"city":"Schenectady","state":"New York","stateAbbrev":"NY"},"timeZone":{"id":"America/New_York","offset":-5,"tz":"EST"}},{"id":4744,"name":"Municipal Stadium","link":"/api/v1/venues/4744","location":{"city":"Rocky Mount","state":"North Carolina","stateAbbrev":"NC"},"timeZone":{"id":"America/New_York","offset":-5,"tz":"EST"}},{"id":4745,"name":"Paul G. Fyffe Field","link":"/api/v1/venues/4745","location":{"city":"Paintsville","state":"Kentucky","stateAbbrev":"KY"},"timeZone":{"id":"America/New_York","offset":-5,"tz":"EST"}},{"id":4746,"name":"Robbins Park","link":"/api/v1/venues/4746","location":{"city":"Red Springs","state":"North Carolina","stateAbbrev":"NC"},"timeZone":{"id":"America/New_York","offset":-5,"tz":"EST"}},{"id":4747,"name":"Schepps Palm Field","link":"/api/v1/venues/4747","location":{"city":"Corpus Christi","state":"Texas","stateAbbrev":"TX"},"timeZone":{"id":"America/Chicago","offset":-6,"tz":"CST"}},{"id":4748,"name":"Scranton Stadium","link":"/api/v1/venues/4748","location":{"city":"Scranton","state":"Pennsylvania","stateAbbrev":"PA"},"timeZone":{"id":"America/New_York","offset":-5,"tz":"EST"}},{"id":4749,"name":"Senior High Stadium","link":"/api/v1/venues/4749","location":{"city":"Statesville","state":"North Carolina","stateAbbrev":"NC"},"timeZone":{"id":"America/New_York","offset":-5,"tz":"EST"}},{"id":4750,"name":"Stade Bellevue","link":"/api/v1/venues/4750","location":{"city":"Thetford Mines","state":"Quebec","stateAbbrev":"QC"},"timeZone":{"id":"America/Toronto","offset":-5,"tz":"EST"}},{"id":4751,"name":"Stumpf Field","link":"/api/v1/venues/4751","location":{"city":"Lancaster","state":"Pennsylvania","stateAbbrev":"PA"},"timeZone":{"id":"America/New_York","offset":-5,"tz":"EST"}},{"id":4752,"name":"Tech Field","link":"/api/v1/venues/4752","location":{"city":"San Antonio","state":"Texas","stateAbbrev":"TX"},"timeZone":{"id":"America/Chicago","offset":-6,"tz":"CST"}},{"id":4753,"name":"Texas League Park","link":"/api/v1/venues/4753","location":{"city":"Oklahoma City","state":"Oklahoma","stateAbbrev":"OK"},"timeZone":{"id":"America/Chicago","offset":-6,"tz":"CST"}},{"id":4754,"name":"Tullar Field","link":"/api/v1/venues/4754","location":{"city":"Wellsville","state":"New York","stateAbbrev":"NY"},"timeZone":{"id":"America/Toronto","offset":-5,"tz":"EST"}},{"id":4755,"name":"Withers Field","link":"/api/v1/venues/4755","location":{"city":"Wytheville","state":"Virginia","stateAbbrev":"VA"},"timeZone":{"id":"America/Los_Angeles","offset":-8,"tz":"PST"}},{"id":4756,"name":"Withers Field","link":"/api/v1/venues/4756","location":{"city":"Wytheville","state":"Virginia","stateAbbrev":"VA"},"timeZone":{"id":"America/New_York","offset":-5,"tz":"EST"}},{"id":4757,"name":"Ainsworth Field","link":"/api/v1/venues/4757","location":{"city":"Erie","state":"Pennsylvania","stateAbbrev":"PA"},"timeZone":{"id":"America/New_York","offset":-5,"tz":"EST"}},{"id":4758,"name":"Al Lopez Field","link":"/api/v1/venues/4758","location":{"city":"Tampa","state":"Florida","stateAbbrev":"FL"},"timeZone":{"id":"America/New_York","offset":-5,"tz":"EST"}},{"id":4759,"name":"Albuquerque Sports Stadium","link":"/api/v1/venues/4759","location":{"city":"Albuquerque","state":"New Mexico","stateAbbrev":"NM"},"timeZone":{"id":"America/Denver","offset":-7,"tz":"MST"}},{"id":4760,"name":"All-Sports Stadium","link":"/api/v1/venues/4760","location":{"city":"Oklahoma City","state":"Oklahoma","stateAbbrev":"OK"},"timeZone":{"id":"America/Chicago","offset":-6,"tz":"CST"}},{"id":4761,"name":"Alumni Field","link":"/api/v1/venues/4761","location":{"city":"Butte","state":"Montana","stateAbbrev":"MT"},"timeZone":{"id":"America/Denver","offset":-7,"tz":"MST"}},{"id":4762,"name":"Alumni Field","link":"/api/v1/venues/4762","location":{"city":"Lowell","state":"Massachusetts","stateAbbrev":"MA"},"timeZone":{"id":"America/New_York","offset":-5,"tz":"EST"}},{"id":4763,"name":"Anderson Memorial Stadium","link":"/api/v1/venues/4763","location":{"city":"Anderson","state":"South Carolina","stateAbbrev":"SC"},"timeZone":{"id":"America/New_York","offset":-5,"tz":"EST"}},{"id":4764,"name":"Angels Stadium","link":"/api/v1/venues/4764","location":{"city":"Palm Springs","state":"California","stateAbbrev":"CA"},"timeZone":{"id":"America/Los_Angeles","offset":-8,"tz":"PST"}},{"id":4765,"name":"Athletic Park","link":"/api/v1/venues/4765","location":{"city":"Medicine Hat","state":"Alberta","stateAbbrev":"AB"},"timeZone":{"id":"America/Edmonton","offset":-7,"tz":"MST"}},{"id":4766,"name":"Athletic Park","link":"/api/v1/venues/4766","location":{"city":"Wausau","state":"Wisconsin","stateAbbrev":"WI"},"timeZone":{"id":"America/Chicago","offset":-6,"tz":"CST"}},{"id":4767,"name":"Baseball City Stadium","link":"/api/v1/venues/4767","location":{"city":"Davenport","state":"Florida","stateAbbrev":"FL"},"timeZone":{"id":"America/New_York","offset":-5,"tz":"EST"}},{"id":4768,"name":"Beehive Field","link":"/api/v1/venues/4768","location":{"city":"New Britain","state":"Connecticut","stateAbbrev":"CT"},"timeZone":{"id":"America/New_York","offset":-5,"tz":"EST"}},{"id":4769,"name":"Bernie Arbour Memorial stadium","link":"/api/v1/venues/4769","location":{"city":"Hamilton","state":"New York","stateAbbrev":"NY"},"timeZone":{"id":"America/New_York","offset":-5,"tz":"EST"}},{"id":4770,"name":"Bethel Park","link":"/api/v1/venues/4770","location":{"city":"Eugene","state":"Oregon","stateAbbrev":"OR"},"timeZone":{"id":"America/Los_Angeles","offset":-8,"tz":"PST"}},{"id":4771,"name":"Borchert Field","link":"/api/v1/venues/4771","location":{"city":"Milwaukee","state":"Wisconsin","stateAbbrev":"WI"},"timeZone":{"id":"America/Chicago","offset":-6,"tz":"CST"}},{"id":4772,"name":"Bosse Field","link":"/api/v1/venues/4772","location":{"city":"Evansville","state":"Indiana","stateAbbrev":"IN"},"timeZone":{"id":"America/Los_Angeles","offset":-8,"tz":"PST"}},{"id":4773,"name":"Bosse Field","link":"/api/v1/venues/4773","location":{"city":"Evansville","state":"Indiana","stateAbbrev":"IN"},"timeZone":{"id":"America/Chicago","offset":-6,"tz":"CST"}},{"id":4774,"name":"Bringhurst Field","link":"/api/v1/venues/4774","location":{"city":"Alexandria","state":"Louisiana","stateAbbrev":"LA"},"timeZone":{"id":"America/Chicago","offset":-6,"tz":"CST"}},{"id":4775,"name":"Brooks Field","link":"/api/v1/venues/4775","location":{"city":"Wilmington","state":"North Carolina","stateAbbrev":"NC"},"timeZone":{"id":"America/New_York","offset":-5,"tz":"EST"}},{"id":4776,"name":"Buffalo Stadium","link":"/api/v1/venues/4776","location":{"city":"Houston","state":"Texas","stateAbbrev":"TX"},"timeZone":{"id":"America/Chicago","offset":-6,"tz":"CST"}},{"id":4777,"name":"Bulkeley Stadium","link":"/api/v1/venues/4777","location":{"city":"Hartford","state":"Connecticut","stateAbbrev":"CT"},"timeZone":{"id":"America/New_York","offset":-5,"tz":"EST"}},{"id":4778,"name":"Burlington Athletic Park","link":"/api/v1/venues/4778","location":{"city":"Burlington","state":"North Carolina","stateAbbrev":"NC"},"timeZone":{"id":"America/New_York","offset":-5,"tz":"EST"}},{"id":4779,"name":"Burnett Field","link":"/api/v1/venues/4779","location":{"city":"Dallas","state":"Texas","stateAbbrev":"TX"},"timeZone":{"id":"America/Chicago","offset":-6,"tz":"CST"}},{"id":4780,"name":"Burns Stadium","link":"/api/v1/venues/4780","location":{"city":"Calgary","state":"Alberta","stateAbbrev":"AB"},"timeZone":{"id":"America/Edmonton","offset":-7,"tz":"MST"}},{"id":4781,"name":"Bush Field","link":"/api/v1/venues/4781","location":{"city":"Indianapolis","state":"Indiana","stateAbbrev":"IN"},"timeZone":{"id":"America/Indiana/Indianapolis","offset":-6,"tz":"CST"}},{"id":4783,"name":"Cardinal Field","link":"/api/v1/venues/4783","location":{"city":"Louisville","state":"Kentucky","stateAbbrev":"KY"},"timeZone":{"id":"America/Kentucky/Louisville","offset":-5,"tz":"EST"}},{"id":4784,"name":"Casey Field","link":"/api/v1/venues/4784","location":{"city":"Covington","state":"Virginia","stateAbbrev":"VA"},"timeZone":{"id":"America/New_York","offset":-5,"tz":"EST"}},{"id":4785,"name":"Coastal Carolina College Stadium","link":"/api/v1/venues/4785","location":{"city":"Myrtle Beach","state":"South Carolina","stateAbbrev":"SC"},"timeZone":{"id":"America/New_York","offset":-5,"tz":"EST"}},{"id":4389,"name":"Estadio Nacional Rod Carew","link":"/api/v1/venues/4389","location":{"city":"Panama City"},"timeZone":{"id":"America/Panama","offset":-5,"tz":"EDT"}},{"id":2913,"name":"Estadio Jose Perez Colmenares","link":"/api/v1/venues/2913","location":{"city":"Maracay","stateAbbrev":"VZ"},"timeZone":{"id":"America/Caracas","offset":-4,"tz":"AST"}},{"id":4786,"name":"City Park Stadium","link":"/api/v1/venues/4786","location":{"city":"New Orleans","state":"Louisiana","stateAbbrev":"LA"},"timeZone":{"id":"America/Chicago","offset":-6,"tz":"CST"}},{"id":4787,"name":"Civic Stadium","link":"/api/v1/venues/4787","location":{"city":"Seattle","state":"Washington","stateAbbrev":"WA"},"timeZone":{"id":"America/Los_Angeles","offset":-8,"tz":"PST"}},{"id":4788,"name":"Crockett Park","link":"/api/v1/venues/4788","location":{"city":"Charlotte","state":"North Carolina","stateAbbrev":"NC"},"timeZone":{"id":"America/New_York","offset":-5,"tz":"EST"}},{"id":4789,"name":"Cobb Field","link":"/api/v1/venues/4789","location":{"city":"Billings","state":"Montana","stateAbbrev":"MT"},"timeZone":{"id":"America/Denver","offset":-7,"tz":"MST"}},{"id":4790,"name":"Colburn Park","link":"/api/v1/venues/4790","location":{"city":"Newark","state":"New Jersey","stateAbbrev":"NJ"},"timeZone":{"id":"America/New_York","offset":-5,"tz":"EST"}},{"id":4791,"name":"College of Staten Island Baseball Complex","link":"/api/v1/venues/4791","location":{"city":"Staten Island","state":"New York","stateAbbrev":"NY"},"timeZone":{"id":"America/New_York","offset":-5,"tz":"EST"}},{"id":4792,"name":"College Park","link":"/api/v1/venues/4792","location":{"city":"Charleston","state":"South Carolina","stateAbbrev":"SC"},"timeZone":{"id":"America/New_York","offset":-5,"tz":"EST"}},{"id":4793,"name":"Community Park","link":"/api/v1/venues/4793","location":{"city":"St. Catharines","state":"Ontario","stateAbbrev":"ON"},"timeZone":{"id":"America/Toronto","offset":-5,"tz":"EST"}},{"id":4794,"name":"Conrad Park","link":"/api/v1/venues/4794","location":{"city":"DeLand","state":"Florida","stateAbbrev":"FL"},"timeZone":{"id":"America/New_York","offset":-5,"tz":"EST"}},{"id":4795,"name":"Corning Memorial Stadium","link":"/api/v1/venues/4795","location":{"city":"Corning","state":"New York","stateAbbrev":"NY"},"timeZone":{"id":"America/New_York","offset":-5,"tz":"EST"}},{"id":4796,"name":"Cranberry Ballpark","link":"/api/v1/venues/4796","location":{"city":"Hazleton","state":"Pennsylvania","stateAbbrev":"PA"},"timeZone":{"id":"America/New_York","offset":-5,"tz":"EST"}},{"id":4797,"name":"Danville Stadium","link":"/api/v1/venues/4797","location":{"city":"Danville","state":"Virginia","stateAbbrev":"VA"},"timeZone":{"id":"America/New_York","offset":-5,"tz":"EST"}},{"id":4798,"name":"DeLorimier Downs","link":"/api/v1/venues/4798","location":{"city":"Montreal","state":"Quebec","stateAbbrev":"QC"},"timeZone":{"id":"America/Toronto","offset":-5,"tz":"EST"}},{"id":4799,"name":"Derks Field","link":"/api/v1/venues/4799","location":{"city":"Salt Lake","state":"Utah","stateAbbrev":"UT"},"timeZone":{"id":"America/Denver","offset":-7,"tz":"MST"}},{"id":4800,"name":"Disch Field","link":"/api/v1/venues/4800","location":{"city":"Austin","state":"Texas","stateAbbrev":"TX"},"timeZone":{"id":"America/Chicago","offset":-6,"tz":"CST"}},{"id":4801,"name":"Donovan Stadium","link":"/api/v1/venues/4801","location":{"city":"Utica","state":"New York","stateAbbrev":"NY"},"timeZone":{"id":"America/New_York","offset":-5,"tz":"EST"}},{"id":4803,"name":"Duncan Park","link":"/api/v1/venues/4803","location":{"city":"Spartanburg","state":"South Carolina","stateAbbrev":"SC"},"timeZone":{"id":"America/New_York","offset":-5,"tz":"EST"}},{"id":4804,"name":"Dunn Field","link":"/api/v1/venues/4804","location":{"city":"Elmira","state":"New York","stateAbbrev":"NY"},"timeZone":{"id":"America/New_York","offset":-5,"tz":"EST"}},{"id":4805,"name":"Durham Athletic Park","link":"/api/v1/venues/4805","location":{"city":"Durham","state":"North Carolina","stateAbbrev":"NC"},"timeZone":{"id":"America/New_York","offset":-5,"tz":"EST"}},{"id":4806,"name":"East Field","link":"/api/v1/venues/4806","location":{"city":"Glens Falls","state":"New York","stateAbbrev":"NY"},"timeZone":{"id":"America/New_York","offset":-5,"tz":"EST"}},{"id":4807,"name":"Edmonds Field","link":"/api/v1/venues/4807","location":{"city":"Sacramento","state":"California","stateAbbrev":"CA"},"timeZone":{"id":"America/Los_Angeles","offset":-8,"tz":"PST"}},{"id":4808,"name":"Engel Stadium","link":"/api/v1/venues/4808","location":{"city":"Chattanooga","state":"Tennessee","stateAbbrev":"TN"},"timeZone":{"id":"America/New_York","offset":-5,"tz":"EST"}},{"id":4809,"name":"Euless Park","link":"/api/v1/venues/4809","location":{"city":"Fresno","state":"California","stateAbbrev":"CA"},"timeZone":{"id":"America/Los_Angeles","offset":-8,"tz":"PST"}},{"id":4810,"name":"Fair Grounds Field","link":"/api/v1/venues/4810","location":{"city":"Shreveport","state":"Louisiana","stateAbbrev":"LA"},"timeZone":{"id":"America/Chicago","offset":-6,"tz":"CST"}},{"id":4811,"name":"Fair Grounds Park","link":"/api/v1/venues/4811","location":{"city":"Watertown","state":"New York","stateAbbrev":"NY"},"timeZone":{"id":"America/New_York","offset":-5,"tz":"EST"}},{"id":4812,"name":"Fans Field","link":"/api/v1/venues/4812","location":{"city":"Decatur","state":"Illinois","stateAbbrev":"IL"},"timeZone":{"id":"America/Chicago","offset":-6,"tz":"CST"}},{"id":4813,"name":"Ferris Field","link":"/api/v1/venues/4813","location":{"city":"Spokane","state":"Washington","stateAbbrev":"WA"},"timeZone":{"id":"America/Los_Angeles","offset":-8,"tz":"PST"}},{"id":4814,"name":"Finch Field","link":"/api/v1/venues/4814","location":{"city":"High Point","state":"North Carolina","stateAbbrev":"NC"},"timeZone":{"id":"America/New_York","offset":-5,"tz":"EST"}},{"id":4815,"name":"Fiscalini Field","link":"/api/v1/venues/4815","location":{"city":"San Bernardino","state":"California","stateAbbrev":"CA"},"timeZone":{"id":"America/Los_Angeles","offset":-8,"tz":"PST"}},{"id":4816,"name":"Fleming Stadium","link":"/api/v1/venues/4816","location":{"city":"Wilson","state":"North Carolina","stateAbbrev":"NC"},"timeZone":{"id":"America/New_York","offset":-5,"tz":"EST"}},{"id":4818,"name":"Four Mile Run Park","link":"/api/v1/venues/4818","location":{"city":"Alexandria","state":"Virginia","stateAbbrev":"VA"},"timeZone":{"id":"America/New_York","offset":-5,"tz":"EST"}},{"id":4819,"name":"Giants Field","link":"/api/v1/venues/4819","location":{"city":"Harlingen","state":"Texas","stateAbbrev":"TX"},"timeZone":{"id":"America/Chicago","offset":-6,"tz":"CST"}},{"id":4820,"name":"Gill Stadium","link":"/api/v1/venues/4820","location":{"city":"Manchester","state":"New Hampshire","stateAbbrev":"NH"},"timeZone":{"id":"America/New_York","offset":-5,"tz":"EST"}},{"id":4821,"name":"Gilmore Field","link":"/api/v1/venues/4821","location":{"city":"Hollywood","state":"California","stateAbbrev":"CA"},"timeZone":{"id":"America/Los_Angeles","offset":-8,"tz":"PST"}},{"id":4823,"name":"Goodland Field","link":"/api/v1/venues/4823","location":{"city":"Appleton","state":"Wisconsin","stateAbbrev":"WI"},"timeZone":{"id":"America/Chicago","offset":-6,"tz":"CST"}},{"id":4824,"name":"Estadio Latinoamericano","link":"/api/v1/venues/4824","location":{"city":"Havana"},"timeZone":{"id":"America/Havana","offset":-5,"tz":"CST"}},{"id":4825,"name":"Haliwell Park","link":"/api/v1/venues/4825","location":{"city":"Pocatello","state":"Idaho","stateAbbrev":"ID"},"timeZone":{"id":"America/Boise","offset":-7,"tz":"MST"}},{"id":4826,"name":"Peninsula War Memorial Stadium","link":"/api/v1/venues/4826","location":{"city":"Hampton","state":"Virginia","stateAbbrev":"VA"},"timeZone":{"id":"America/New_York","offset":-5,"tz":"EST"}},{"id":4827,"name":"Hartwell Field","link":"/api/v1/venues/4827","location":{"city":"Mobile","state":"Alabama","stateAbbrev":"AL"},"timeZone":{"id":"America/Chicago","offset":-6,"tz":"CST"}},{"id":4828,"name":"Hawkins Stadium","link":"/api/v1/venues/4828","location":{"city":"Albany","state":"New York","stateAbbrev":"NY"},"timeZone":{"id":"America/New_York","offset":-5,"tz":"EST"}},{"id":4829,"name":"Heaton Stadium","link":"/api/v1/venues/4829","location":{"city":"Augusta","state":"Georgia","stateAbbrev":"GA"},"timeZone":{"id":"America/New_York","offset":-5,"tz":"EST"}},{"id":4830,"name":"Henderson Stadium","link":"/api/v1/venues/4830","location":{"city":"Lethbridge","state":"Alberta","stateAbbrev":"AB"},"timeZone":{"id":"America/Edmonton","offset":-7,"tz":"MST"}},{"id":4831,"name":"Henley Field","link":"/api/v1/venues/4831","location":{"city":"Lakeland","state":"Florida","stateAbbrev":"FL"},"timeZone":{"id":"America/New_York","offset":-5,"tz":"EST"}},{"id":4832,"name":"Heritage Park","link":"/api/v1/venues/4832","location":{"city":"Albany","state":"New York","stateAbbrev":"NY"},"timeZone":{"id":"America/New_York","offset":-5,"tz":"EST"}},{"id":4833,"name":"Hilltop Park","link":"/api/v1/venues/4833","location":{"city":"Middlesboro","state":"Kentucky","stateAbbrev":"KY"},"timeZone":{"id":"America/New_York","offset":-5,"tz":"EST"}},{"id":4834,"name":"Holman Stadium","link":"/api/v1/venues/4834","location":{"city":"Nashua","state":"New Hampshire","stateAbbrev":"NH"},"timeZone":{"id":"America/New_York","offset":-5,"tz":"EST"}},{"id":4835,"name":"Holt-Moffit Field","link":"/api/v1/venues/4835","location":{"city":"Lexington","state":"North Carolina","stateAbbrev":"NC"},"timeZone":{"id":"America/New_York","offset":-5,"tz":"EST"}},{"id":4836,"name":"Honolulu Stadium","link":"/api/v1/venues/4836","location":{"city":"Honolulu","state":"Hawaii","stateAbbrev":"HI"},"timeZone":{"id":"Pacific/Honolulu","offset":-10,"tz":"HT"}},{"id":4837,"name":"Hooker Field","link":"/api/v1/venues/4837","location":{"city":"Martinsville","state":"Virginia","stateAbbrev":"VA"},"timeZone":{"id":"America/New_York","offset":-5,"tz":"EST"}},{"id":4838,"name":"Hughes Stadium","link":"/api/v1/venues/4838","location":{"city":"Sacramento","state":"California","stateAbbrev":"CA"},"timeZone":{"id":"America/Los_Angeles","offset":-8,"tz":"PST"}},{"id":4839,"name":"Joe Martin Field","link":"/api/v1/venues/4839","location":{"city":"Bellingham","state":"Washington","stateAbbrev":"WA"},"timeZone":{"id":"America/Los_Angeles","offset":-8,"tz":"PST"}},{"id":4840,"name":"John Ducey Park","link":"/api/v1/venues/4840","location":{"city":"Edmonton","state":"Alberta","stateAbbrev":"AB"},"timeZone":{"id":"America/Edmonton","offset":-7,"tz":"MST"}},{"id":4841,"name":"John Petrakis Field","link":"/api/v1/venues/4841","location":{"city":"Dubuque","state":"Iowa","stateAbbrev":"IA"},"timeZone":{"id":"America/Chicago","offset":-6,"tz":"CST"}},{"id":4842,"name":"Kiwanis Field","link":"/api/v1/venues/4842","location":{"city":"Salem","state":"Virginia","stateAbbrev":"VA"},"timeZone":{"id":"America/New_York","offset":-5,"tz":"EST"}},{"id":4843,"name":"Knoxville Municipal Stadium","link":"/api/v1/venues/4843","location":{"city":"Knoxville","state":"Tennessee","stateAbbrev":"TN"},"timeZone":{"id":"America/New_York","offset":-5,"tz":"EST"}},{"id":4844,"name":"Labatt Park","link":"/api/v1/venues/4844","location":{"city":"London","state":"Ontario","stateAbbrev":"ON"},"timeZone":{"id":"America/Toronto","offset":-5,"tz":"EST"}},{"id":4845,"name":"Laguna Park","link":"/api/v1/venues/4845","location":{"city":"Santa Barbara","state":"California","stateAbbrev":"CA"},"timeZone":{"id":"America/Denver","offset":-6,"tz":"CST"}},{"id":4846,"name":"Laguna Park","link":"/api/v1/venues/4846","location":{"city":"Santa Barbara","state":"California","stateAbbrev":"CA"},"timeZone":{"id":"America/Los_Angeles","offset":-8,"tz":"PST"}},{"id":4847,"name":"Lane Field","link":"/api/v1/venues/4847","location":{"city":"San Diego","state":"California","stateAbbrev":"CA"},"timeZone":{"id":"America/Los_Angeles","offset":-8,"tz":"PST"}},{"id":4848,"name":"Lanphier Park","link":"/api/v1/venues/4848","location":{"city":"Springfield","state":"Illinois","stateAbbrev":"IL"},"timeZone":{"id":"America/Chicago","offset":-6,"tz":"CST"}},{"id":4849,"name":"Lansdowne Park","link":"/api/v1/venues/4849","location":{"city":"Ottawa","state":"Ontario","stateAbbrev":"ON"},"timeZone":{"id":"America/Toronto","offset":-5,"tz":"EST"}},{"id":4850,"name":"Larry H. Miller Field","link":"/api/v1/venues/4850","location":{"city":"Provo","state":"Utah","stateAbbrev":"UT"},"timeZone":{"id":"America/Denver","offset":-7,"tz":"MST"}},{"id":4851,"name":"Lawrence Park","link":"/api/v1/venues/4851","location":{"city":"Lodi","state":"California","stateAbbrev":"CA"},"timeZone":{"id":"America/Los_Angeles","offset":-8,"tz":"PST"}},{"id":3410,"name":"Parque la Junta","link":"/api/v1/venues/3410","location":{"city":"Nuevo Laredo","stateAbbrev":"MX"},"timeZone":{"id":"America/Chicago","offset":-6,"tz":"CST"}},{"id":3689,"name":"Telus Field","link":"/api/v1/venues/3689","location":{"city":"Edmonton","state":"Alberta","stateAbbrev":"AB"},"timeZone":{"id":"America/Edmonton","offset":-7,"tz":"MST"}},{"id":3690,"name":"Seaman Stadium","link":"/api/v1/venues/3690","location":{"city":"Okotoks","state":"Alberta","stateAbbrev":"AB"},"timeZone":{"id":"America/Edmonton","offset":-7,"tz":"MST"}},{"id":3991,"name":"Taichung Intercontinental Baseball Stadium","link":"/api/v1/venues/3991","location":{"city":"Taichung","stateAbbrev":"TI"},"timeZone":{"id":"Asia/Taipei","offset":8,"tz":"CST"}},{"id":4009,"name":"Miyagi Stadium","link":"/api/v1/venues/4009","location":{"city":"Rifu","stateAbbrev":"JP"},"timeZone":{"id":"Asia/Tokyo","offset":9,"tz":"JST"}},{"id":4010,"name":"Tsuruoka Dream Stadium","link":"/api/v1/venues/4010","location":{"city":"Yamagata","stateAbbrev":"JP"},"timeZone":{"id":"Asia/Tokyo","offset":9,"tz":"JST"}},{"id":4011,"name":"Meiji Jingu Stadium","link":"/api/v1/venues/4011","location":{"city":"Shinjuku","stateAbbrev":"JP"},"timeZone":{"id":"Asia/Tokyo","offset":9,"tz":"JST"}},{"id":4012,"name":"Prince George Citizen Field","link":"/api/v1/venues/4012","location":{"city":"Prince George","state":"British Columbia","stateAbbrev":"BC"},"timeZone":{"id":"America/Vancouver","offset":-8,"tz":"PST"}},{"id":4669,"name":"Southwest University Park","link":"/api/v1/venues/4669","location":{"city":"El Paso","state":"Texas","stateAbbrev":"TX"},"timeZone":{"id":"America/Denver","offset":-7,"tz":"MST"}},{"id":4670,"name":"Truist Field","link":"/api/v1/venues/4670","location":{"city":"Charlotte","state":"North Carolina","stateAbbrev":"NC"},"timeZone":{"id":"America/New_York","offset":-5,"tz":"EST"}},{"id":4109,"name":"PK Park","link":"/api/v1/venues/4109","location":{"city":"Eugene","state":"Oregon","stateAbbrev":"OR"},"timeZone":{"id":"America/Los_Angeles","offset":-8,"tz":"PST"}},{"id":3909,"name":"Estadio Adolfo Lopez Mateos","link":"/api/v1/venues/3909","location":{"city":"Reynosa","stateAbbrev":"MX"},"timeZone":{"id":"America/Matamoros","offset":-6,"tz":"CST"}},{"id":3929,"name":"Estadio De Beisbol Beto Avila","link":"/api/v1/venues/3929","location":{"city":"Cancun","stateAbbrev":"MX"},"timeZone":{"id":"America/Cancun","offset":-5,"tz":"CDT"}},{"id":4853,"name":"Legion Field","link":"/api/v1/venues/4853","location":{"city":"Florence","state":"South Carolina","stateAbbrev":"SC"},"timeZone":{"id":"America/New_York","offset":-5,"tz":"EST"}},{"id":4854,"name":"Legion Stadium","link":"/api/v1/venues/4854","location":{"city":"Greenwood","state":"South Carolina","stateAbbrev":"SC"},"timeZone":{"id":"America/New_York","offset":-5,"tz":"EST"}},{"id":4855,"name":"Lexington Stadium","link":"/api/v1/venues/4855","location":{"city":"St. Paul","state":"Minnesota","stateAbbrev":"MN"},"timeZone":{"id":"America/Chicago","offset":-6,"tz":"CST"}},{"id":4856,"name":"Luther Williams Field","link":"/api/v1/venues/4856","location":{"city":"Macon","state":"Georgia","stateAbbrev":"GA"},"timeZone":{"id":"America/New_York","offset":-5,"tz":"EST"}},{"id":4857,"name":"MacArthur Stadium","link":"/api/v1/venues/4857","location":{"city":"Syracuse","state":"New York","stateAbbrev":"NY"},"timeZone":{"id":"America/New_York","offset":-5,"tz":"EST"}},{"id":4858,"name":"Maple Leaf Stadium","link":"/api/v1/venues/4858","location":{"city":"Toronto","state":"Ontario","stateAbbrev":"ON"},"timeZone":{"id":"America/Toronto","offset":-5,"tz":"EST"}},{"id":4859,"name":"Marinelli Field","link":"/api/v1/venues/4859","location":{"city":"Rockford","state":"Illinois","stateAbbrev":"IL"},"timeZone":{"id":"America/Chicago","offset":-6,"tz":"CST"}},{"id":4860,"name":"McDonough Park","link":"/api/v1/venues/4860","location":{"city":"Geneva","state":"New York","stateAbbrev":"NY"},"timeZone":{"id":"America/New_York","offset":-5,"tz":"EST"}},{"id":4861,"name":"Meadowbrook Park","link":"/api/v1/venues/4861","location":{"city":"Greenville","state":"South Carolina","stateAbbrev":"SC"},"timeZone":{"id":"America/New_York","offset":-5,"tz":"EST"}},{"id":4862,"name":"Meinen Stadium","link":"/api/v1/venues/4862","location":{"city":"Peoria","state":"Illinois","stateAbbrev":"IL"},"timeZone":{"id":"America/Chicago","offset":-6,"tz":"CST"}},{"id":4863,"name":"Met Park","link":"/api/v1/venues/4863","location":{"city":"Tidewater","state":"Virginia","stateAbbrev":"VA"},"timeZone":{"id":"America/New_York","offset":-5,"tz":"EST"}},{"id":4864,"name":"Miami Stadium","link":"/api/v1/venues/4864","location":{"city":"Miami","state":"Florida","stateAbbrev":"FL"},"timeZone":{"id":"America/New_York","offset":-5,"tz":"EST"}},{"id":4865,"name":"Midway Stadium","link":"/api/v1/venues/4865","location":{"city":"St. Paul","state":"Minnesota","stateAbbrev":"MN"},"timeZone":{"id":"America/Chicago","offset":-6,"tz":"CST"}},{"id":4866,"name":"Miles Field","link":"/api/v1/venues/4866","location":{"city":"Southern Oregon","state":"Oregon","stateAbbrev":"OR"},"timeZone":{"id":"America/Los_Angeles","offset":-8,"tz":"PST"}},{"id":4867,"name":"Mirmow Stadium","link":"/api/v1/venues/4867","location":{"city":"Orangeburg","state":"New York","stateAbbrev":"NY"},"timeZone":{"id":"America/New_York","offset":-5,"tz":"EST"}},{"id":4868,"name":"Mission Stadium","link":"/api/v1/venues/4868","location":{"city":"San Antonio","state":"Texas","stateAbbrev":"TX"},"timeZone":{"id":"America/Chicago","offset":-6,"tz":"CST"}},{"id":4869,"name":"Moana Stadium","link":"/api/v1/venues/4869","location":{"city":"Reno","state":"Nevada","stateAbbrev":"NV"},"timeZone":{"id":"America/Los_Angeles","offset":-8,"tz":"PST"}},{"id":4870,"name":"Municipal Park","link":"/api/v1/venues/4870","location":{"city":"Boise","state":"Idaho","stateAbbrev":"ID"},"timeZone":{"id":"America/Boise","offset":-7,"tz":"MST"}},{"id":4871,"name":"Municipal Stadium","link":"/api/v1/venues/4871","location":{"city":"Rock Hill","state":"South Carolina","stateAbbrev":"SC"},"timeZone":{"id":"America/New_York","offset":-5,"tz":"EST"}},{"id":4872,"name":"Municipal Stadium","link":"/api/v1/venues/4872","location":{"city":"Waterbury","state":"Connecticut","stateAbbrev":"CT"},"timeZone":{"id":"America/New_York","offset":-5,"tz":"EST"}},{"id":4873,"name":"Muzzy Field","link":"/api/v1/venues/4873","location":{"city":"Bristol","state":"Virginia","stateAbbrev":"VA"},"timeZone":{"id":"America/New_York","offset":-5,"tz":"EST"}},{"id":4874,"name":"Ned Skeldon Stadium","link":"/api/v1/venues/4874","location":{"city":"Toledo","state":"Ohio","stateAbbrev":"OH"},"timeZone":{"id":"America/New_York","offset":-5,"tz":"EST"}},{"id":4875,"name":"Nicollet Park","link":"/api/v1/venues/4875","location":{"city":"Minneapolis","state":"Minnesota","stateAbbrev":"MN"},"timeZone":{"id":"America/Chicago","offset":-6,"tz":"CST"}},{"id":4876,"name":"Oaks Park","link":"/api/v1/venues/4876","location":{"city":"Oakland","state":"California","stateAbbrev":"CA"},"timeZone":{"id":"America/Los_Angeles","offset":-8,"tz":"PST"}},{"id":4877,"name":"Offermann Stadium","link":"/api/v1/venues/4877","location":{"city":"Buffalo","state":"New York","stateAbbrev":"NY"},"timeZone":{"id":"America/New_York","offset":-5,"tz":"EST"}},{"id":4878,"name":"Oiler Park","link":"/api/v1/venues/4878","location":{"city":"Tulsa","state":"Oklahoma","stateAbbrev":"OK"},"timeZone":{"id":"America/Chicago","offset":-6,"tz":"CST"}},{"id":4879,"name":"Olympic Stadium","link":"/api/v1/venues/4879","location":{"city":"Hoquiam","state":"Washington","stateAbbrev":"WA"},"timeZone":{"id":"America/Los_Angeles","offset":-8,"tz":"PST"}},{"id":4880,"name":"Parker Field","link":"/api/v1/venues/4880","location":{"city":"Richmond","state":"Virginia","stateAbbrev":"VA"},"timeZone":{"id":"America/New_York","offset":-5,"tz":"EST"}},{"id":4881,"name":"Parker Field","link":"/api/v1/venues/4881","location":{"city":"Yakima","state":"Washington","stateAbbrev":"WA"},"timeZone":{"id":"America/Los_Angeles","offset":-8,"tz":"PST"}},{"id":4882,"name":"Parkway Field","link":"/api/v1/venues/4882","location":{"city":"Louisville","state":"Kentucky","stateAbbrev":"KY"},"timeZone":{"id":"America/Kentucky/Louisville","offset":-5,"tz":"EST"}},{"id":4883,"name":"Pat Thomas Stadium","link":"/api/v1/venues/4883","location":{"city":"Leesburg","state":"Virginia","stateAbbrev":"VA"},"timeZone":{"id":"America/New_York","offset":-5,"tz":"EST"}},{"id":4884,"name":"Paterson Field","link":"/api/v1/venues/4884","location":{"city":"Montgomery","state":"Alabama","stateAbbrev":"AL"},"timeZone":{"id":"America/Chicago","offset":-6,"tz":"CST"}},{"id":4885,"name":"Paul Eames Sports Complex","link":"/api/v1/venues/4885","location":{"city":"Albany","state":"Georgia","stateAbbrev":"GA"},"timeZone":{"id":"America/New_York","offset":-5,"tz":"EST"}},{"id":4886,"name":"Payne Park","link":"/api/v1/venues/4886","location":{"city":"Sarasota","state":"Florida","stateAbbrev":"FL"},"timeZone":{"id":"America/New_York","offset":-5,"tz":"EST"}},{"id":4887,"name":"Pelican Stadium","link":"/api/v1/venues/4887","location":{"city":"New Orleans","state":"Louisiana","stateAbbrev":"LA"},"timeZone":{"id":"America/Chicago","offset":-6,"tz":"CST"}},{"id":4888,"name":"Pete Beiden Field","link":"/api/v1/venues/4888","location":{"city":"Fresno","state":"California","stateAbbrev":"CA"},"timeZone":{"id":"America/Los_Angeles","offset":-8,"tz":"PST"}},{"id":4889,"name":"Pete Vonachen Stadium","link":"/api/v1/venues/4889","location":{"city":"Peoria","state":"Illinois","stateAbbrev":"IL"},"timeZone":{"id":"America/Chicago","offset":-6,"tz":"CST"}},{"id":5205,"name":"Coliseum at Richfield","link":"/api/v1/venues/5205","location":{"city":"Cleveland","state":"Ohio","stateAbbrev":"OH"},"timeZone":{"id":"America/New_York","offset":-5,"tz":"EST"}},{"id":4890,"name":"Pikeville Athletic Field Complex","link":"/api/v1/venues/4890","location":{"city":"Pikeville","state":"Kentucky","stateAbbrev":"KY"},"timeZone":{"id":"America/New_York","offset":-5,"tz":"EST"}},{"id":4891,"name":"Point Stadium","link":"/api/v1/venues/4891","location":{"city":"Johnstown","state":"Pennsylvania","stateAbbrev":"PA"},"timeZone":{"id":"America/New_York","offset":-5,"tz":"EST"}},{"id":4892,"name":"Pompano Beach Municipal Stadium","link":"/api/v1/venues/4892","location":{"city":"Pompano Beach","state":"Florida","stateAbbrev":"FL"},"timeZone":{"id":"America/New_York","offset":-5,"tz":"EST"}},{"id":4893,"name":"Ponce de Leon Park","link":"/api/v1/venues/4893","location":{"city":"Atlanta","state":"Georgia","stateAbbrev":"GA"},"timeZone":{"id":"America/New_York","offset":-5,"tz":"EST"}},{"id":4894,"name":"Potter County Memorial Stadium","link":"/api/v1/venues/4894","location":{"city":"Amarillo","state":"Texas","stateAbbrev":"TX"},"timeZone":{"id":"America/Chicago","offset":-5,"tz":"EST"}},{"id":4895,"name":"Privateer Park","link":"/api/v1/venues/4895","location":{"city":"Metairie","state":"Louisiana","stateAbbrev":"LA"},"timeZone":{"id":"America/Chicago","offset":-6,"tz":"CST"}},{"id":4896,"name":"Pynchon Stadium","link":"/api/v1/venues/4896","location":{"city":"Springfield","state":"Missouri","stateAbbrev":"MO"},"timeZone":{"id":"America/Chicago","offset":-6,"tz":"CST"}},{"id":4897,"name":"Q Stadium","link":"/api/v1/venues/4897","location":{"city":"Quincy","state":"Massachusetts","stateAbbrev":"MA"},"timeZone":{"id":"America/New_York","offset":-5,"tz":"EST"}},{"id":4898,"name":"Queens Park Stadium","link":"/api/v1/venues/4898","location":{"city":"New Westminster","state":"British Columbia","stateAbbrev":"BC"},"timeZone":{"id":"America/Vancouver","offset":-8,"tz":"PST"}},{"id":4899,"name":"Quigley Stadium","link":"/api/v1/venues/4899","location":{"city":"West Haven","state":"Connecticut","stateAbbrev":"CT"},"timeZone":{"id":"America/New_York","offset":-5,"tz":"EST"}},{"id":4900,"name":"Recreation Park","link":"/api/v1/venues/4900","location":{"city":"Wenatchee","state":"Washington","stateAbbrev":"WA"},"timeZone":{"id":"America/Los_Angeles","offset":-8,"tz":"PST"}},{"id":4901,"name":"Riley Park","link":"/api/v1/venues/4901","location":{"city":"Sumter","state":"South Carolina","stateAbbrev":"SC"},"timeZone":{"id":"America/New_York","offset":-5,"tz":"EST"}},{"id":4902,"name":"Riverfront Stadium","link":"/api/v1/venues/4902","location":{"city":"Waterloo","state":"Iowa","stateAbbrev":"IA"},"timeZone":{"id":"America/Chicago","offset":-6,"tz":"CST"}},{"id":4903,"name":"Riverside Sports Complex","link":"/api/v1/venues/4903","location":{"city":"Riverside","state":"California","stateAbbrev":"CA"},"timeZone":{"id":"America/Los_Angeles","offset":-8,"tz":"PST"}},{"id":4904,"name":"Toro Stadium","link":"/api/v1/venues/4904","location":{"city":"Victoria","state":"Texas","stateAbbrev":"TX"},"timeZone":{"id":"America/Chicago","offset":-6,"tz":"CST"}},{"id":4905,"name":"Rohnert Park Stadium","link":"/api/v1/venues/4905","location":{"city":"Rohnert Park","state":"California","stateAbbrev":"CA"},"timeZone":{"id":"America/Los_Angeles","offset":-8,"tz":"PST"}},{"id":4906,"name":"Royal Athletic Park","link":"/api/v1/venues/4906","location":{"city":"Victoria","state":"British Columbia","stateAbbrev":"BC"},"timeZone":{"id":"America/Vancouver","offset":-8,"tz":"PST"}},{"id":4907,"name":"Ruppert Stadium","link":"/api/v1/venues/4907","location":{"city":"Newark","state":"New Jersey","stateAbbrev":"NJ"},"timeZone":{"id":"America/New_York","offset":-5,"tz":"EST"}},{"id":4908,"name":"Russwood Park","link":"/api/v1/venues/4908","location":{"city":"Memphis","state":"Tennessee","stateAbbrev":"TN"},"timeZone":{"id":"America/Chicago","offset":-5,"tz":"EST"}},{"id":4909,"name":"Sal Maglie Stadium","link":"/api/v1/venues/4909","location":{"city":"Niagara Falls","state":"New York","stateAbbrev":"NY"},"timeZone":{"id":"America/New_York","offset":-5,"tz":"EST"}},{"id":4910,"name":"Salinas Municipal Stadium","link":"/api/v1/venues/4910","location":{"city":"Salinas","state":"California","stateAbbrev":"CA"},"timeZone":{"id":"America/Los_Angeles","offset":-8,"tz":"PST"}},{"id":4911,"name":"Samuel W. Wolfson Park","link":"/api/v1/venues/4911","location":{"city":"Jacksonville","state":"Florida","stateAbbrev":"FL"},"timeZone":{"id":"America/New_York","offset":-5,"tz":"EST"}},{"id":4912,"name":"Sanders-Jacobs Field","link":"/api/v1/venues/4912","location":{"city":"Pasco","state":"Washington","stateAbbrev":"WA"},"timeZone":{"id":"America/Los_Angeles","offset":-8,"tz":"PST"}},{"id":4913,"name":"Sec Taylor Stadium","link":"/api/v1/venues/4913","location":{"city":"Des Moines","state":"Iowa","stateAbbrev":"IA"},"timeZone":{"id":"America/Chicago","offset":-6,"tz":"CST"}},{"id":4914,"name":"Serge B. Simmons Field","link":"/api/v1/venues/4914","location":{"city":"Ogden","state":"Utah","stateAbbrev":"UT"},"timeZone":{"id":"America/Denver","offset":-7,"tz":"MST"}},{"id":4915,"name":"Silver Stadium","link":"/api/v1/venues/4915","location":{"city":"Rochester","state":"New York","stateAbbrev":"NY"},"timeZone":{"id":"America/New_York","offset":-5,"tz":"EST"}},{"id":4916,"name":"Simmons Field","link":"/api/v1/venues/4916","location":{"city":"Kenosha","state":"Wisconsin","stateAbbrev":"WI"},"timeZone":{"id":"America/Chicago","offset":-6,"tz":"CST"}},{"id":4917,"name":"Simplot Stadium","link":"/api/v1/venues/4917","location":{"city":"Caldwell","state":"Idaho","stateAbbrev":"ID"},"timeZone":{"id":"America/Boise","offset":-7,"tz":"MST"}},{"id":4029,"name":"Goodwin Field","link":"/api/v1/venues/4029","location":{"city":"Fullerton","state":"California","stateAbbrev":"CA"},"timeZone":{"id":"America/Los_Angeles","offset":-8,"tz":"PST"}},{"id":4569,"name":"Bobby Mattick Complex","link":"/api/v1/venues/4569","location":{"city":"Dunedin","state":"Florida","stateAbbrev":"FL"},"timeZone":{"id":"America/New_York","offset":-5,"tz":"EST"}},{"id":5155,"name":"BMO Field","link":"/api/v1/venues/5155","location":{"city":"Toronto","state":"Ontario","stateAbbrev":"ON"},"timeZone":{"id":"America/Toronto","offset":-5,"tz":"EST"}},{"id":5156,"name":"Cambria County War Memorial Arena","link":"/api/v1/venues/5156","location":{"city":"Johnstown","state":"Pennsylvania","stateAbbrev":"PA"},"timeZone":{"id":"America/New_York","offset":-5,"tz":"EST"}},{"id":5157,"name":"Dunkin' Donuts Center","link":"/api/v1/venues/5157","location":{"city":"Providence","state":"Rhode Island","stateAbbrev":"RI"},"timeZone":{"id":"America/New_York","offset":-5,"tz":"EST"}},{"id":5158,"name":"Essar Centre","link":"/api/v1/venues/5158","location":{"city":"Sault Ste. Marie","state":"Ontario","stateAbbrev":"ON"},"timeZone":{"id":"America/Toronto","offset":-5,"tz":"EST"}},{"id":5159,"name":"FirstOntario Centre","link":"/api/v1/venues/5159","location":{"city":"Hamilton","state":"Ontario","stateAbbrev":"ON"},"timeZone":{"id":"America/Toronto","offset":-5,"tz":"EST"}},{"id":5160,"name":"Hartwall Arena","link":"/api/v1/venues/5160","location":{"city":"Helsinki"},"timeZone":{"id":"Europe/Helsinki","offset":2,"tz":"EET"}},{"id":5161,"name":"Investors Group Field","link":"/api/v1/venues/5161","location":{"city":"Winnipeg","state":"Manitoba","stateAbbrev":"MB"},"timeZone":{"id":"America/Winnipeg","offset":-6,"tz":"CST"}},{"id":5162,"name":"Kal Tire Place","link":"/api/v1/venues/5162","location":{"city":"Vernon","state":"British Columbia","stateAbbrev":"BC"},"timeZone":{"id":"America/Vancouver","offset":-8,"tz":"PST"}},{"id":5163,"name":"Lakeview Arena","link":"/api/v1/venues/5163","location":{"city":"Marquette","state":"Michigan","stateAbbrev":"MI"},"timeZone":{"id":"America/Detroit","offset":-5,"tz":"EST"}},{"id":5164,"name":"Meridian Centre","link":"/api/v1/venues/5164","location":{"city":"St. Catharines","state":"Ontario","stateAbbrev":"ON"},"timeZone":{"id":"America/Toronto","offset":-5,"tz":"EST"}},{"id":5165,"name":"MGM Grand Garden Arena","link":"/api/v1/venues/5165","location":{"city":"Las Vegas","state":"Nevada","stateAbbrev":"NV"},"timeZone":{"id":"America/Los_Angeles","offset":-8,"tz":"PST"}},{"id":5167,"name":"Pegula Ice Arena","link":"/api/v1/venues/5167","location":{"city":"University Park","state":"Pennsylvania","stateAbbrev":"PA"},"timeZone":{"id":"America/New_York","offset":-5,"tz":"EST"}},{"id":5168,"name":"PPL Center","link":"/api/v1/venues/5168","location":{"city":"Allentown","state":"Pennsylvania","stateAbbrev":"PA"},"timeZone":{"id":"America/New_York","offset":-5,"tz":"EST"}},{"id":5169,"name":"Rabobank Arena","link":"/api/v1/venues/5169","location":{"city":"Bakersfield","state":"California","stateAbbrev":"CA"},"timeZone":{"id":"America/Los_Angeles","offset":-8,"tz":"PST"}},{"id":5170,"name":"SaskTel Centre","link":"/api/v1/venues/5170","location":{"city":"Saskatoon","state":"Saskatchewan","stateAbbrev":"SK"},"timeZone":{"id":"America/Winnipeg","offset":-6,"tz":"CST"}},{"id":5171,"name":"Scandinavium","link":"/api/v1/venues/5171","location":{"city":"Gothenburg"},"timeZone":{"id":"Europe/Stockholm","offset":1,"tz":"CET"}},{"id":5172,"name":"Scotiabank Centre","link":"/api/v1/venues/5172","location":{"city":"Halifax","state":"Nova Scotia","stateAbbrev":"NS"},"timeZone":{"id":"America/Halifax","offset":-4,"tz":"AST"}},{"id":5173,"name":"Sprint Center","link":"/api/v1/venues/5173","location":{"city":"Kansas City","state":"Missouri","stateAbbrev":"MO"},"timeZone":{"id":"America/Chicago","offset":-6,"tz":"CST"}},{"id":5174,"name":"Tate Rink","link":"/api/v1/venues/5174","location":{"city":"West Point","state":"New York","stateAbbrev":"NY"},"timeZone":{"id":"America/New_York","offset":-5,"tz":"EST"}},{"id":5175,"name":"TCF Bank Stadium","link":"/api/v1/venues/5175","location":{"city":"Minneapolis","state":"Minnesota","stateAbbrev":"MN"},"timeZone":{"id":"America/Chicago","offset":-6,"tz":"CST"}},{"id":5176,"name":"The O2 Arena","link":"/api/v1/venues/5176","location":{"city":"London"},"timeZone":{"id":"Europe/London","offset":0,"tz":"BST"}},{"id":5177,"name":"The Q Centre","link":"/api/v1/venues/5177","location":{"city":"Colwood","state":"British Columbia","stateAbbrev":"BC"},"timeZone":{"id":"America/Vancouver","offset":-8,"tz":"PST"}},{"id":5178,"name":"T-Mobile Arena","link":"/api/v1/venues/5178","location":{"city":"Las Vegas","state":"Nevada","stateAbbrev":"NV"},"timeZone":{"id":"America/Los_Angeles","offset":-8,"tz":"PST"}},{"id":5179,"name":"Videotron Centre","link":"/api/v1/venues/5179","location":{"city":"Quebec City","state":"Quebec","stateAbbrev":"QC"},"timeZone":{"id":"America/New_York","offset":-5,"tz":"EST"}},{"id":5180,"name":"Yubileyny Sports Palace","link":"/api/v1/venues/5180","location":{"city":"St. Petersburg"},"timeZone":{"id":"Europe/Moscow","offset":3,"tz":"MSK"}},{"id":5295,"name":"The Battery Atlanta","link":"/api/v1/venues/5295","location":{"city":"Atlanta","state":"Georgia","stateAbbrev":"GA"},"timeZone":{"id":"America/New_York","offset":-5,"tz":"EST"}},{"id":5315,"name":"Max Bishop Stadium","link":"/api/v1/venues/5315","location":{"city":"Annapolis","state":"Maryland","stateAbbrev":"MD"},"timeZone":{"id":"America/New_York","offset":-5,"tz":"EST"}},{"id":3669,"name":"Botchan Stadium","link":"/api/v1/venues/3669","location":{"city":"Matsuyama","stateAbbrev":"JP"},"timeZone":{"id":"Asia/Tokyo","offset":9,"tz":"JST"}},{"id":3670,"name":"Madonna Stadium","link":"/api/v1/venues/3670","location":{"city":"Matsuyama","stateAbbrev":"JP"},"timeZone":{"id":"Asia/Tokyo","offset":9,"tz":"JST"}},{"id":4410,"name":"Merlin Street Oval","link":"/api/v1/venues/4410","location":{"city":"Perth"},"timeZone":{"id":"Australia/Perth","offset":8,"tz":"AWST"}},{"id":2869,"name":"Estadio Hermanos Serdan","link":"/api/v1/venues/2869","location":{"city":"Puebla","stateAbbrev":"MX"},"timeZone":{"id":"America/Mexico_City","offset":-6,"tz":"CST"}},{"id":4169,"name":"Marlins Park","link":"/api/v1/venues/4169","location":{"city":"Miami","state":"Florida","stateAbbrev":"FL","defaultCoordinates":{"latitude":25.77796236,"longitude":-80.21951795}},"timeZone":{"id":"America/New_York","offset":-5,"tz":"EST"}},{"id":4918,"name":"Sims Legion Park","link":"/api/v1/venues/4918","location":{"city":"Gastonia","state":"North Carolina","stateAbbrev":"NC"},"timeZone":{"id":"America/New_York","offset":-5,"tz":"EST"}},{"id":4919,"name":"Smithson Stadium","link":"/api/v1/venues/4919","location":{"city":"Knoxville","state":"Tennessee","stateAbbrev":"TN"},"timeZone":{"id":"America/New_York","offset":-5,"tz":"EST"}},{"id":4920,"name":"Smith-Wills Stadium","link":"/api/v1/venues/4920","location":{"city":"Jackson","state":"Mississippi","stateAbbrev":"MS"},"timeZone":{"id":"America/Chicago","offset":-6,"tz":"CST"}},{"id":3131,"name":"League Park","link":"/api/v1/venues/3131","location":{"city":"Cleveland","state":"Ohio","stateAbbrev":"OH"},"timeZone":{"id":"America/New_York","offset":-5,"tz":"EST"}},{"id":4921,"name":"SPAR Stadium","link":"/api/v1/venues/4921","location":{"city":"Shreveport","state":"Louisiana","stateAbbrev":"LA"},"timeZone":{"id":"America/Chicago","offset":-6,"tz":"CST"}},{"id":4922,"name":"St. Cloud Commons","link":"/api/v1/venues/4922","location":{"city":"Huntington","state":"West Virginia","stateAbbrev":"WV"},"timeZone":{"id":"America/New_York","offset":-5,"tz":"EST"}},{"id":4923,"name":"Stade Amedee-Roy","link":"/api/v1/venues/4923","location":{"city":"Sherbrooke","state":"Quebec","stateAbbrev":"QC"},"timeZone":{"id":"America/Toronto","offset":-5,"tz":"EST"}},{"id":4924,"name":"Stade Municipal de Quebec","link":"/api/v1/venues/4924","location":{"city":"Quebec","state":"Quebec","stateAbbrev":"QC"},"timeZone":{"id":"America/Toronto","offset":-5,"tz":"EST"}},{"id":4925,"name":"Stuart Stadium","link":"/api/v1/venues/4925","location":{"city":"Beaumont","state":"Texas","stateAbbrev":"TX"},"timeZone":{"id":"America/Chicago","offset":-6,"tz":"CST"}},{"id":4926,"name":"Sulphur Dell","link":"/api/v1/venues/4926","location":{"city":"Nashville","state":"Tennessee","stateAbbrev":"TN"},"timeZone":{"id":"America/Chicago","offset":-5,"tz":"EST"}},{"id":4927,"name":"Louisiana SuperDome","link":"/api/v1/venues/4927","location":{"city":"New Orleans","state":"Louisiana","stateAbbrev":"LA"},"timeZone":{"id":"America/Chicago","offset":-6,"tz":"CST"}},{"id":4928,"name":"Swayne Field","link":"/api/v1/venues/4928","location":{"city":"Toledo","state":"Ohio","stateAbbrev":"OH"},"timeZone":{"id":"America/New_York","offset":-5,"tz":"EST"}},{"id":5185,"name":"Budweiser Gardens","link":"/api/v1/venues/5185","location":{"city":"London","state":"Ontario","stateAbbrev":"ON"},"timeZone":{"id":"America/Toronto","offset":-5,"tz":"EST"}},{"id":4930,"name":"The Ballpark","link":"/api/v1/venues/4930","location":{"city":"Old Orchard Beach","state":"Maine","stateAbbrev":"ME"},"timeZone":{"id":"America/New_York","offset":-5,"tz":"EST"}},{"id":4931,"name":"The Ballpark at St. John's","link":"/api/v1/venues/4931","location":{"city":"Queens","state":"New York","stateAbbrev":"NY"},"timeZone":{"id":"America/New_York","offset":-5,"tz":"EST"}},{"id":4932,"name":"The Cocoa Expo","link":"/api/v1/venues/4932","location":{"city":"Cocoa","state":"Florida","stateAbbrev":"FL"},"timeZone":{"id":"America/New_York","offset":-5,"tz":"EST"}},{"id":4933,"name":"Thurman Munson Memorial Stadium","link":"/api/v1/venues/4933","location":{"city":"Canton","state":"Ohio","stateAbbrev":"OH"},"timeZone":{"id":"America/New_York","offset":-5,"tz":"EST"}},{"id":4934,"name":"Tim McCarver Stadium","link":"/api/v1/venues/4934","location":{"city":"Memphis","state":"Tennessee","stateAbbrev":"TN"},"timeZone":{"id":"America/Chicago","offset":-5,"tz":"EST"}},{"id":4935,"name":"Tingley Field","link":"/api/v1/venues/4935","location":{"city":"Albuquerque","state":"New Mexico","stateAbbrev":"NM"},"timeZone":{"id":"America/Denver","offset":-7,"tz":"MST"}},{"id":4936,"name":"Tinker Field","link":"/api/v1/venues/4936","location":{"city":"Orlando","state":"Florida","stateAbbrev":"FL"},"timeZone":{"id":"America/New_York","offset":-5,"tz":"EST"}},{"id":4937,"name":"V.J. Keefe Memorial Field","link":"/api/v1/venues/4937","location":{"city":"San Antonio","state":"Texas","stateAbbrev":"TX"},"timeZone":{"id":"America/Chicago","offset":-6,"tz":"CST"}},{"id":4938,"name":"Vaughn Street Park","link":"/api/v1/venues/4938","location":{"city":"Portland","state":"Oregon","stateAbbrev":"OR"},"timeZone":{"id":"America/Los_Angeles","offset":-8,"tz":"PST"}},{"id":4939,"name":"Veterans Field","link":"/api/v1/venues/4939","location":{"city":"Shelby","state":"North Carolina","stateAbbrev":"NC"},"timeZone":{"id":"America/New_York","offset":-5,"tz":"EST"}},{"id":4940,"name":"Veterans Memorial Stadium","link":"/api/v1/venues/4940","location":{"city":"Little Falls","state":"New York","stateAbbrev":"NY"},"timeZone":{"id":"America/New_York","offset":-5,"tz":"EST"}},{"id":4941,"name":"Vince Genna Stadium","link":"/api/v1/venues/4941","location":{"city":"Bend","state":"Oregon","stateAbbrev":"OR"},"timeZone":{"id":"America/Los_Angeles","offset":-8,"tz":"PST"}},{"id":4942,"name":"Vincent-Beck Stadium","link":"/api/v1/venues/4942","location":{"city":"Beaumont","state":"Texas","stateAbbrev":"TX"},"timeZone":{"id":"America/Chicago","offset":-6,"tz":"CST"}},{"id":4943,"name":"War Memorial Stadium","link":"/api/v1/venues/4943","location":{"city":"Buffalo","state":"New York","stateAbbrev":"NY"},"timeZone":{"id":"America/New_York","offset":-5,"tz":"EST"}},{"id":4944,"name":"Warner Park","link":"/api/v1/venues/4944","location":{"city":"Madison","state":"Wisconsin","stateAbbrev":"WI"},"timeZone":{"id":"America/Chicago","offset":-6,"tz":"CST"}},{"id":4945,"name":"Washington Park","link":"/api/v1/venues/4945","location":{"city":"Santa Clara","state":"California","stateAbbrev":"CA"},"timeZone":{"id":"America/Los_Angeles","offset":-8,"tz":"PST"}},{"id":4946,"name":"Waters Field","link":"/api/v1/venues/4946","location":{"city":"Salem","state":"Oregon","stateAbbrev":"OR"},"timeZone":{"id":"America/Los_Angeles","offset":-8,"tz":"PST"}},{"id":4947,"name":"Welland Sports Stadium","link":"/api/v1/venues/4947","location":{"city":"Welland","state":"Ontario","stateAbbrev":"ON"},"timeZone":{"id":"America/Toronto","offset":-5,"tz":"EST"}},{"id":4948,"name":"West Palm Beach Municipal Stadium","link":"/api/v1/venues/4948","location":{"city":"West Palm Beach","state":"Florida","stateAbbrev":"FL"},"timeZone":{"id":"America/New_York","offset":-5,"tz":"EST"}},{"id":4949,"name":"Westgate Park","link":"/api/v1/venues/4949","location":{"city":"San Diego","state":"California","stateAbbrev":"CA"},"timeZone":{"id":"America/Los_Angeles","offset":-8,"tz":"PST"}},{"id":4950,"name":"Wickers Stadium","link":"/api/v1/venues/4950","location":{"city":"Key West","state":"Florida","stateAbbrev":"FL"},"timeZone":{"id":"America/New_York","offset":-5,"tz":"EST"}},{"id":4951,"name":"Winnipeg Stadium","link":"/api/v1/venues/4951","location":{"city":"Winnipeg","state":"Manitoba","stateAbbrev":"MB"},"timeZone":{"id":"America/Winnipeg","offset":-6,"tz":"CST"}},{"id":4952,"name":"Witter Field","link":"/api/v1/venues/4952","location":{"city":"Wisconsin Rapids","state":"Wisconsin","stateAbbrev":"WI"},"timeZone":{"id":"America/Chicago","offset":-6,"tz":"CST"}},{"id":4953,"name":"World War Memorial Stadium","link":"/api/v1/venues/4953","location":{"city":"Greensboro","state":"North Carolina","stateAbbrev":"NC"},"timeZone":{"id":"America/New_York","offset":-5,"tz":"EST"}},{"id":4954,"name":"Yale Field","link":"/api/v1/venues/4954","location":{"city":"New Haven","state":"Connecticut","stateAbbrev":"CT"},"timeZone":{"id":"America/New_York","offset":-5,"tz":"EST"}},{"id":4955,"name":"Municipal Stadium","link":"/api/v1/venues/4955","location":{"city":"Trois Rivieres","state":"Quebec","stateAbbrev":"QC"},"timeZone":{"id":"America/Toronto","offset":-5,"tz":"EST"}},{"id":2971,"name":"Les Murakami Stadium","link":"/api/v1/venues/2971","location":{"city":"Honolulu","state":"Hawaii","stateAbbrev":"HI"},"timeZone":{"id":"Pacific/Honolulu","offset":-10,"tz":"HT"}},{"id":4985,"name":"Dunkin' Donuts Park","link":"/api/v1/venues/4985","location":{"city":"Hartford","state":"Connecticut","stateAbbrev":"CT"},"timeZone":{"id":"America/New_York","offset":-5,"tz":"EST"}},{"id":5320,"name":"Parque Domingo Santana","link":"/api/v1/venues/5320","location":{"city":"Leon","stateAbbrev":"MX"},"timeZone":{"id":"America/Mexico_City","offset":-6,"tz":"CST"}},{"id":1,"name":"Angel Stadium","link":"/api/v1/venues/1","location":{"city":"Anaheim","state":"California","stateAbbrev":"CA","defaultCoordinates":{"latitude":33.80019044,"longitude":-117.8823996}},"timeZone":{"id":"America/Los_Angeles","offset":-8,"tz":"PST"}},{"id":2,"name":"Oriole Park at Camden Yards","link":"/api/v1/venues/2","location":{"city":"Baltimore","state":"Maryland","stateAbbrev":"MD","defaultCoordinates":{"latitude":39.283787,"longitude":-76.621689}},"timeZone":{"id":"America/New_York","offset":-5,"tz":"EST"}},{"id":3,"name":"Fenway Park","link":"/api/v1/venues/3","location":{"city":"Boston","state":"Massachusetts","stateAbbrev":"MA","defaultCoordinates":{"latitude":42.346456,"longitude":-71.097441}},"timeZone":{"id":"America/New_York","offset":-5,"tz":"EST"}},{"id":4,"name":"Guaranteed Rate Field","link":"/api/v1/venues/4","location":{"city":"Chicago","state":"Illinois","stateAbbrev":"IL","defaultCoordinates":{"latitude":41.83,"longitude":-87.634167}},"timeZone":{"id":"America/Chicago","offset":-6,"tz":"CST"}},{"id":5206,"name":"Denver Arena Auditorium","link":"/api/v1/venues/5206","location":{"city":"Denver","state":"Colorado","stateAbbrev":"CO"},"timeZone":{"id":"America/Denver","offset":-7,"tz":"MST"}},{"id":6,"name":"Tiger Stadium","link":"/api/v1/venues/6","location":{"city":"Detroit","state":"Michigan","stateAbbrev":"MI"},"timeZone":{"id":"America/Detroit","offset":-5,"tz":"EST"}},{"id":7,"name":"Kauffman Stadium","link":"/api/v1/venues/7","location":{"city":"Kansas City","state":"Missouri","stateAbbrev":"MO","defaultCoordinates":{"latitude":39.051567,"longitude":-94.480483}},"timeZone":{"id":"America/Chicago","offset":-6,"tz":"CST"}},{"id":8,"name":"Hubert H. Humphrey Metrodome","link":"/api/v1/venues/8","location":{"city":"Minneapolis","state":"Minnesota","stateAbbrev":"MN"},"timeZone":{"id":"America/Chicago","offset":-6,"tz":"CST"}},{"id":9,"name":"Yankee Stadium","link":"/api/v1/venues/9","location":{"city":"Bronx","state":"New York","stateAbbrev":"NY"},"timeZone":{"id":"America/New_York","offset":-5,"tz":"EST"}},{"id":10,"name":"Oakland Coliseum","link":"/api/v1/venues/10","location":{"city":"Oakland","state":"California","stateAbbrev":"CA","defaultCoordinates":{"latitude":37.751511,"longitude":-122.200698}},"timeZone":{"id":"America/Los_Angeles","offset":-8,"tz":"PST"}},{"id":11,"name":"The Kingdome","link":"/api/v1/venues/11","location":{"city":"Seattle","state":"Washington","stateAbbrev":"WA"},"timeZone":{"id":"America/Los_Angeles","offset":-8,"tz":"PST"}},{"id":12,"name":"Tropicana Field","link":"/api/v1/venues/12","location":{"city":"St. Petersburg","state":"Florida","stateAbbrev":"FL","defaultCoordinates":{"latitude":27.767778,"longitude":-82.6525}},"timeZone":{"id":"America/New_York","offset":-5,"tz":"EST"}},{"id":14,"name":"Rogers Centre","link":"/api/v1/venues/14","location":{"city":"Toronto","state":"Ontario","stateAbbrev":"ON","defaultCoordinates":{"latitude":43.64155,"longitude":-79.38915}},"timeZone":{"id":"America/Toronto","offset":-5,"tz":"EST"}},{"id":15,"name":"Chase Field","link":"/api/v1/venues/15","location":{"city":"Phoenix","state":"Arizona","stateAbbrev":"AZ","defaultCoordinates":{"latitude":33.445302,"longitude":-112.066687}},"timeZone":{"id":"America/Phoenix","offset":-7,"tz":"MST"}},{"id":16,"name":"Turner Field","link":"/api/v1/venues/16","location":{"city":"Atlanta","state":"Georgia","stateAbbrev":"GA"},"timeZone":{"id":"America/New_York","offset":-5,"tz":"EST"}},{"id":18,"name":"Cinergy Field","link":"/api/v1/venues/18","location":{"city":"Cincinnati","state":"Ohio","stateAbbrev":"OH"},"timeZone":{"id":"America/New_York","offset":-5,"tz":"EST"}},{"id":20,"name":"Hard Rock Stadium","link":"/api/v1/venues/20","location":{"city":"Miami","state":"Florida","stateAbbrev":"FL"},"timeZone":{"id":"America/New_York","offset":-5,"tz":"EST"}},{"id":21,"name":"Astrodome","link":"/api/v1/venues/21","location":{"city":"Houston","state":"Texas","stateAbbrev":"TX"},"timeZone":{"id":"America/Chicago","offset":-6,"tz":"CST"}},{"id":22,"name":"Dodger Stadium","link":"/api/v1/venues/22","location":{"city":"Los Angeles","state":"California","stateAbbrev":"CA","defaultCoordinates":{"latitude":34.07368,"longitude":-118.24053}},"timeZone":{"id":"America/Los_Angeles","offset":-8,"tz":"PST"}},{"id":23,"name":"Milwaukee County Stadium","link":"/api/v1/venues/23","location":{"city":"Milwaukee","state":"Wisconsin","stateAbbrev":"WI"},"timeZone":{"id":"America/Chicago","offset":-6,"tz":"CST"}},{"id":25,"name":"Shea Stadium","link":"/api/v1/venues/25","location":{"city":"Flushing","state":"New York","stateAbbrev":"NY"},"timeZone":{"id":"America/New_York","offset":-5,"tz":"EST"}},{"id":27,"name":"Three Rivers Stadium","link":"/api/v1/venues/27","location":{"city":"Pittsburgh","state":"Pennsylvania","stateAbbrev":"PA"},"timeZone":{"id":"America/New_York","offset":-5,"tz":"EST"}},{"id":28,"name":"Qualcomm Stadium","link":"/api/v1/venues/28","location":{"city":"San Diego","state":"California","stateAbbrev":"CA"},"timeZone":{"id":"America/Los_Angeles","offset":-8,"tz":"PST"}},{"id":29,"name":"3Com Park at Candlestick Point","link":"/api/v1/venues/29","location":{"city":"San Francisco","state":"California","stateAbbrev":"CA"},"timeZone":{"id":"America/Los_Angeles","offset":-8,"tz":"PST"}},{"id":30,"name":"Busch Stadium","link":"/api/v1/venues/30","location":{"city":"St. Louis","state":"Missouri","stateAbbrev":"MO"},"timeZone":{"id":"America/Chicago","offset":-6,"tz":"CST"}},{"id":401,"name":"TBD","link":"/api/v1/venues/401","location":{"city":"United States"},"timeZone":{"id":"America/New_York","offset":-5,"tz":"EST"}},{"id":680,"name":"T-Mobile Park","link":"/api/v1/venues/680","location":{"city":"Seattle","state":"Washington","stateAbbrev":"WA","defaultCoordinates":{"latitude":47.591333,"longitude":-122.33251}},"timeZone":{"id":"America/Los_Angeles","offset":-8,"tz":"PST"}},{"id":2392,"name":"Minute Maid Park","link":"/api/v1/venues/2392","location":{"city":"Houston","state":"Texas","stateAbbrev":"TX","defaultCoordinates":{"latitude":29.756967,"longitude":-95.355509}},"timeZone":{"id":"America/Chicago","offset":-6,"tz":"CST"}},{"id":2394,"name":"Comerica Park","link":"/api/v1/venues/2394","location":{"city":"Detroit","state":"Michigan","stateAbbrev":"MI","defaultCoordinates":{"latitude":42.3391151,"longitude":-83.048695}},"timeZone":{"id":"America/Detroit","offset":-5,"tz":"EST"}},{"id":2395,"name":"Oracle Park","link":"/api/v1/venues/2395","location":{"city":"San Francisco","state":"California","stateAbbrev":"CA","defaultCoordinates":{"latitude":37.778383,"longitude":-122.389448}},"timeZone":{"id":"America/Los_Angeles","offset":-8,"tz":"PST"}},{"id":2397,"name":"Tokyo Dome","link":"/api/v1/venues/2397","location":{"city":"Tokyo","stateAbbrev":"JP"},"timeZone":{"id":"Asia/Tokyo","offset":9,"tz":"JST"}},{"id":2500,"name":"Tempe Diablo Stadium","link":"/api/v1/venues/2500","location":{"city":"Tempe","state":"Arizona","stateAbbrev":"AZ","defaultCoordinates":{"latitude":33.40092,"longitude":-111.9707}},"timeZone":{"id":"America/Phoenix","offset":-7,"tz":"MST"}},{"id":2502,"name":"Hermosillo","link":"/api/v1/venues/2502","location":{"city":"Hermosillo","stateAbbrev":"MX"},"timeZone":{"id":"America/Hermosillo","offset":-7,"tz":"MST"}},{"id":2503,"name":"Cashman Field","link":"/api/v1/venues/2503","location":{"city":"Las Vegas","state":"Nevada","stateAbbrev":"NV"},"timeZone":{"id":"America/Los_Angeles","offset":-8,"tz":"PST"}},{"id":2504,"name":"Champion Stadium","link":"/api/v1/venues/2504","location":{"city":"Lake Buena Vista","state":"Florida","stateAbbrev":"FL","defaultCoordinates":{"latitude":28.33725,"longitude":-81.55613}},"timeZone":{"id":"America/New_York","offset":-5,"tz":"EST"}},{"id":2506,"name":"City of Palms Park","link":"/api/v1/venues/2506","location":{"city":"Ft. Myers","state":"Florida","stateAbbrev":"FL"},"timeZone":{"id":"America/New_York","offset":-5,"tz":"EST"}},{"id":2507,"name":"Hohokam Stadium","link":"/api/v1/venues/2507","location":{"city":"Mesa","state":"Arizona","stateAbbrev":"AZ","defaultCoordinates":{"latitude":33.43831,"longitude":-111.82973}},"timeZone":{"id":"America/Phoenix","offset":-7,"tz":"MST"}},{"id":2508,"name":"Ed Smith Stadium","link":"/api/v1/venues/2508","location":{"city":"Sarasota","state":"Florida","stateAbbrev":"FL","defaultCoordinates":{"latitude":27.34795,"longitude":-82.5174}},"timeZone":{"id":"America/New_York","offset":-5,"tz":"EST"}},{"id":2510,"name":"Estadio Jose Bernardo Perez","link":"/api/v1/venues/2510","location":{"city":"Valencia","stateAbbrev":"VZ"},"timeZone":{"id":"America/Caracas","offset":-4,"tz":"AST"}},{"id":5019,"name":"American Airlines Center","link":"/api/v1/venues/5019","location":{"city":"Dallas","state":"Texas","stateAbbrev":"TX"},"timeZone":{"id":"America/Chicago","offset":-6,"tz":"CST"}},{"id":2511,"name":"Publix Field at Joker Marchant Stadium","link":"/api/v1/venues/2511","location":{"city":"Lakeland","state":"Florida","stateAbbrev":"FL","defaultCoordinates":{"latitude":28.07437,"longitude":-81.95113}},"timeZone":{"id":"America/New_York","offset":-5,"tz":"EST"}},{"id":2512,"name":"UPMC Park","link":"/api/v1/venues/2512","location":{"city":"Erie","state":"Pennsylvania","stateAbbrev":"PA"},"timeZone":{"id":"America/New_York","offset":-5,"tz":"EST"}},{"id":2514,"name":"Osceola County Stadium","link":"/api/v1/venues/2514","location":{"city":"Kissimmee","state":"Florida","stateAbbrev":"FL"},"timeZone":{"id":"America/New_York","offset":-5,"tz":"EST"}},{"id":2515,"name":"Baseball City Stadium","link":"/api/v1/venues/2515","location":{"city":"Baseball City","state":"Florida","stateAbbrev":"FL"},"timeZone":{"id":"America/New_York","offset":-5,"tz":"EST"}},{"id":2516,"name":"The Diamond","link":"/api/v1/venues/2516","location":{"city":"Lake Elsinore","state":"California","stateAbbrev":"CA"},"timeZone":{"id":"America/Los_Angeles","offset":-8,"tz":"PST"}},{"id":2518,"name":"American Family Fields of Phoenix","link":"/api/v1/venues/2518","location":{"city":"Phoenix","state":"Arizona","stateAbbrev":"AZ","defaultCoordinates":{"latitude":33.49202,"longitude":-112.1727}},"timeZone":{"id":"America/Phoenix","offset":-7,"tz":"MST"}},{"id":2520,"name":"Roger Dean Chevrolet Stadium","link":"/api/v1/venues/2520","location":{"city":"Jupiter","state":"Florida","stateAbbrev":"FL","defaultCoordinates":{"latitude":26.89084,"longitude":-80.11677}},"timeZone":{"id":"America/New_York","offset":-5,"tz":"EST"}},{"id":2523,"name":"George M. Steinbrenner Field","link":"/api/v1/venues/2523","location":{"city":"Tampa","state":"Florida","stateAbbrev":"FL","defaultCoordinates":{"latitude":27.97997,"longitude":-82.50702}},"timeZone":{"id":"America/New_York","offset":-5,"tz":"EST"}},{"id":2525,"name":"Jack Russell Memorial Stadium","link":"/api/v1/venues/2525","location":{"city":"Clearwater","state":"Florida","stateAbbrev":"FL"},"timeZone":{"id":"America/New_York","offset":-5,"tz":"EST"}},{"id":2526,"name":"LECOM Park","link":"/api/v1/venues/2526","location":{"city":"Bradenton","state":"Florida","stateAbbrev":"FL","defaultCoordinates":{"latitude":27.48535,"longitude":-82.57076}},"timeZone":{"id":"America/New_York","offset":-5,"tz":"EST"}},{"id":2527,"name":"Parque Foro Sol","link":"/api/v1/venues/2527","location":{"city":"Mexico City","stateAbbrev":"MX"},"timeZone":{"id":"America/Mexico_City","offset":-6,"tz":"CST"}},{"id":2528,"name":"Dell Diamond","link":"/api/v1/venues/2528","location":{"city":"Round Rock","state":"Texas","stateAbbrev":"TX"},"timeZone":{"id":"America/Chicago","offset":-6,"tz":"CST"}},{"id":2530,"name":"Peoria Stadium","link":"/api/v1/venues/2530","location":{"city":"Peoria","state":"Arizona","stateAbbrev":"AZ","defaultCoordinates":{"latitude":33.63187,"longitude":-112.23359}},"timeZone":{"id":"America/Phoenix","offset":-7,"tz":"MST"}},{"id":2531,"name":"Desert Sun Stadium","link":"/api/v1/venues/2531","location":{"city":"Yuma","state":"Arizona","stateAbbrev":"AZ"},"timeZone":{"id":"America/Phoenix","offset":-7,"tz":"MST"}},{"id":2533,"name":"Florida Power Park","link":"/api/v1/venues/2533","location":{"city":"St. Petersburg","state":"Florida","stateAbbrev":"FL"},"timeZone":{"id":"America/New_York","offset":-5,"tz":"EST"}},{"id":2534,"name":"Charlotte Sports Park","link":"/api/v1/venues/2534","location":{"city":"Port Charlotte","state":"Florida","stateAbbrev":"FL","defaultCoordinates":{"latitude":26.99888,"longitude":-82.18212}},"timeZone":{"id":"America/New_York","offset":-5,"tz":"EST"}},{"id":2535,"name":"Hiram Bithorn Stadium","link":"/api/v1/venues/2535","location":{"city":"San Juan","state":"Puerto Rico","stateAbbrev":"PR","defaultCoordinates":{"latitude":18.41666,"longitude":-66.072817}},"timeZone":{"id":"America/Puerto_Rico","offset":-4,"tz":"AST"}},{"id":2536,"name":"TD Ballpark","link":"/api/v1/venues/2536","location":{"city":"Dunedin","state":"Florida","stateAbbrev":"FL","defaultCoordinates":{"latitude":28.00401,"longitude":-82.78695}},"timeZone":{"id":"America/New_York","offset":-5,"tz":"EST"}},{"id":2538,"name":"US West Sports Complex, Hi Corbett Field","link":"/api/v1/venues/2538","location":{"city":"Tucson","state":"Arizona","stateAbbrev":"AZ"},"timeZone":{"id":"America/Phoenix","offset":-7,"tz":"MST"}},{"id":31,"name":"PNC Park","link":"/api/v1/venues/31","location":{"city":"Pittsburgh","state":"Pennsylvania","stateAbbrev":"PA","defaultCoordinates":{"latitude":40.446904,"longitude":-80.005753}},"timeZone":{"id":"America/New_York","offset":-5,"tz":"EST"}},{"id":2541,"name":"Durham Bulls Athletic Park","link":"/api/v1/venues/2541","location":{"city":"Durham","state":"North Carolina","stateAbbrev":"NC"},"timeZone":{"id":"America/New_York","offset":-5,"tz":"EST"}},{"id":4489,"name":"Palm Meadows Baseball Facility","link":"/api/v1/venues/4489","location":{"city":"Carrara"},"timeZone":{"id":"Australia/Brisbane","offset":10,"tz":"AEST"}},{"id":4490,"name":"Albert Park","link":"/api/v1/venues/4490","location":{"city":"Lismore"},"timeZone":{"id":"Australia/Sydney","offset":10,"tz":"AEST"}},{"id":4509,"name":"Johnson Stadium at Doubleday Field","link":"/api/v1/venues/4509","location":{"city":"West Point","state":"New York","stateAbbrev":"NY"},"timeZone":{"id":"America/New_York","offset":-5,"tz":"EST"}},{"id":3469,"name":"Appalachian Power Park","link":"/api/v1/venues/3469","location":{"city":"Charleston","state":"West Virginia","stateAbbrev":"WV"},"timeZone":{"id":"America/New_York","offset":-5,"tz":"EST"}},{"id":3470,"name":"Melaleuca Field","link":"/api/v1/venues/3470","location":{"city":"Idaho Falls","state":"Idaho","stateAbbrev":"ID"},"timeZone":{"id":"America/Boise","offset":-7,"tz":"MST"}},{"id":4289,"name":"Nachan Ka'an","link":"/api/v1/venues/4289","location":{"city":"Chetumal","stateAbbrev":"MX"},"timeZone":{"id":"America/Cancun","offset":-6,"tz":"CST"}},{"id":2542,"name":"AutoZone Park","link":"/api/v1/venues/2542","location":{"city":"Memphis","state":"Tennessee","stateAbbrev":"TN"},"timeZone":{"id":"America/Chicago","offset":-6,"tz":"CST"}},{"id":2543,"name":"Mark Light Stadium","link":"/api/v1/venues/2543","location":{"city":"Coral Gables","state":"Florida","stateAbbrev":"FL"},"timeZone":{"id":"America/New_York","offset":-5,"tz":"EST"}},{"id":2603,"name":"Surprise Stadium","link":"/api/v1/venues/2603","location":{"city":"Surprise","state":"Arizona","stateAbbrev":"AZ","defaultCoordinates":{"latitude":33.62762,"longitude":-112.37849}},"timeZone":{"id":"America/Phoenix","offset":-7,"tz":"MST"}},{"id":2620,"name":"Regions Park","link":"/api/v1/venues/2620","location":{"city":"Birmingham","state":"Alabama","stateAbbrev":"AL"},"timeZone":{"id":"America/Chicago","offset":-6,"tz":"CST"}},{"id":2623,"name":"Hoover Metropolitan Stadium","link":"/api/v1/venues/2623","location":{"city":"Birmingham","state":"Alabama","stateAbbrev":"AL"},"timeZone":{"id":"America/Chicago","offset":-6,"tz":"CST"}},{"id":2624,"name":"PGE Park","link":"/api/v1/venues/2624","location":{"city":"Portland","state":"Oregon","stateAbbrev":"OR"},"timeZone":{"id":"America/Los_Angeles","offset":-8,"tz":"PST"}},{"id":2625,"name":"Five County Stadium","link":"/api/v1/venues/2625","location":{"city":"Zebulon","state":"North Carolina","stateAbbrev":"NC"},"timeZone":{"id":"America/New_York","offset":-5,"tz":"EST"}},{"id":2640,"name":"Chukchansi Park","link":"/api/v1/venues/2640","location":{"city":"Fresno","state":"California","stateAbbrev":"CA"},"timeZone":{"id":"America/Los_Angeles","offset":-8,"tz":"PST"}},{"id":2641,"name":"Drillers Stadium","link":"/api/v1/venues/2641","location":{"city":"Tulsa","state":"Oklahoma","stateAbbrev":"OK"},"timeZone":{"id":"America/Chicago","offset":-6,"tz":"CST"}},{"id":2660,"name":"Doubleday Field","link":"/api/v1/venues/2660","location":{"city":"Cooperstown","state":"New York","stateAbbrev":"NY"},"timeZone":{"id":"America/New_York","offset":-5,"tz":"EST"}},{"id":2680,"name":"Petco Park","link":"/api/v1/venues/2680","location":{"city":"San Diego","state":"California","stateAbbrev":"CA","defaultCoordinates":{"latitude":32.707861,"longitude":-117.157278}},"timeZone":{"id":"America/Los_Angeles","offset":-8,"tz":"PST"}},{"id":2731,"name":"Banner Island Ballpark","link":"/api/v1/venues/2731","location":{"city":"Stockton","state":"California","stateAbbrev":"CA"},"timeZone":{"id":"America/Los_Angeles","offset":-8,"tz":"PST"}},{"id":2681,"name":"Citizens Bank Park","link":"/api/v1/venues/2681","location":{"city":"Philadelphia","state":"Pennsylvania","stateAbbrev":"PA","defaultCoordinates":{"latitude":39.90539086,"longitude":-75.16716957}},"timeZone":{"id":"America/New_York","offset":-5,"tz":"EST"}},{"id":2682,"name":"AT&T Field","link":"/api/v1/venues/2682","location":{"city":"Chattanooga","state":"Tennessee","stateAbbrev":"TN"},"timeZone":{"id":"America/New_York","offset":-5,"tz":"EST"}},{"id":2683,"name":"Isotopes Park","link":"/api/v1/venues/2683","location":{"city":"Albuquerque","state":"New Mexico","stateAbbrev":"NM"},"timeZone":{"id":"America/Denver","offset":-7,"tz":"MST"}},{"id":2505,"name":"Fort Lauderdale Stadium","link":"/api/v1/venues/2505","location":{"city":"Ft. Lauderdale","state":"Florida","stateAbbrev":"FL"},"timeZone":{"id":"America/New_York","offset":-5,"tz":"EST"}},{"id":2509,"name":"Chain of Lakes Park","link":"/api/v1/venues/2509","location":{"city":"Winter Haven","state":"Florida","stateAbbrev":"FL"},"timeZone":{"id":"America/New_York","offset":-5,"tz":"EST"}},{"id":2513,"name":"Space Coast Stadium","link":"/api/v1/venues/2513","location":{"city":"Viera","state":"Florida","stateAbbrev":"FL"},"timeZone":{"id":"America/New_York","offset":-5,"tz":"EST"}},{"id":2517,"name":"Holman Stadium","link":"/api/v1/venues/2517","location":{"city":"Vero Beach","state":"Florida","stateAbbrev":"FL"},"timeZone":{"id":"America/New_York","offset":-5,"tz":"EST"}},{"id":2521,"name":"Knights Stadium","link":"/api/v1/venues/2521","location":{"city":"Charlotte","state":"North Carolina","stateAbbrev":"NC"},"timeZone":{"id":"America/New_York","offset":-5,"tz":"EST"}},{"id":2524,"name":"Phoenix Municipal Stadium","link":"/api/v1/venues/2524","location":{"city":"Phoenix","state":"Arizona","stateAbbrev":"AZ"},"timeZone":{"id":"America/Phoenix","offset":-7,"tz":"MST"}},{"id":2529,"name":"Sutter Health Park","link":"/api/v1/venues/2529","location":{"city":"Sacramento","state":"California","stateAbbrev":"CA","defaultCoordinates":{"latitude":38.580209,"longitude":-121.514057}},"timeZone":{"id":"America/Los_Angeles","offset":-8,"tz":"PST"}},{"id":2532,"name":"Scottsdale Stadium","link":"/api/v1/venues/2532","location":{"city":"Scottsdale","state":"Arizona","stateAbbrev":"AZ","defaultCoordinates":{"latitude":33.48869,"longitude":-111.92099}},"timeZone":{"id":"America/Phoenix","offset":-7,"tz":"MST"}},{"id":2540,"name":"Joseph P. Riley Jr. Ballpark","link":"/api/v1/venues/2540","location":{"city":"Charleston","state":"South Carolina","stateAbbrev":"SC"},"timeZone":{"id":"America/New_York","offset":-5,"tz":"EST"}},{"id":5,"name":"Progressive Field","link":"/api/v1/venues/5","location":{"city":"Cleveland","state":"Ohio","stateAbbrev":"OH","defaultCoordinates":{"latitude":41.495861,"longitude":-81.685255}},"timeZone":{"id":"America/New_York","offset":-5,"tz":"EST"}},{"id":13,"name":"Globe Life Park in Arlington","link":"/api/v1/venues/13","location":{"city":"Arlington","state":"Texas","stateAbbrev":"TX","defaultCoordinates":{"latitude":32.751321,"longitude":-97.082682}},"timeZone":{"id":"America/Chicago","offset":-6,"tz":"CST"}},{"id":24,"name":"Olympic Stadium","link":"/api/v1/venues/24","location":{"city":"Montreal","stateAbbrev":"QB","defaultCoordinates":{"latitude":45.558,"longitude":-73.552}},"timeZone":{"id":"America/Toronto","offset":-5,"tz":"EST"}},{"id":32,"name":"American Family Field","link":"/api/v1/venues/32","location":{"city":"Milwaukee","state":"Wisconsin","stateAbbrev":"WI","defaultCoordinates":{"latitude":43.02838,"longitude":-87.97099}},"timeZone":{"id":"America/Chicago","offset":-6,"tz":"CST"}},{"id":2602,"name":"Great American Ball Park","link":"/api/v1/venues/2602","location":{"city":"Cincinnati","state":"Ohio","stateAbbrev":"OH","defaultCoordinates":{"latitude":39.097389,"longitude":-84.506611}},"timeZone":{"id":"America/New_York","offset":-5,"tz":"EST"}},{"id":2700,"name":"BayCare Ballpark","link":"/api/v1/venues/2700","location":{"city":"Clearwater","state":"Florida","stateAbbrev":"FL","defaultCoordinates":{"latitude":27.97136,"longitude":-82.73199}},"timeZone":{"id":"America/New_York","offset":-5,"tz":"EST"}},{"id":2701,"name":"Estadio de Beisbol Monterrey","link":"/api/v1/venues/2701","location":{"city":"Monterrey","stateAbbrev":"MX"},"timeZone":{"id":"America/Monterrey","offset":-6,"tz":"CST"}},{"id":26,"name":"Veterans Stadium","link":"/api/v1/venues/26","location":{"city":"Philadelphia","state":"Pennsylvania","stateAbbrev":"PA"},"timeZone":{"id":"America/New_York","offset":-5,"tz":"EST"}},{"id":2519,"name":"CenturyLink Sports Complex Fields","link":"/api/v1/venues/2519","location":{"city":"Fort Myers","state":"Florida","stateAbbrev":"FL"},"timeZone":{"id":"America/New_York","offset":-5,"tz":"EST"}},{"id":17,"name":"Wrigley Field","link":"/api/v1/venues/17","location":{"city":"Chicago","state":"Illinois","stateAbbrev":"IL","defaultCoordinates":{"latitude":41.948171,"longitude":-87.655503}},"timeZone":{"id":"America/Chicago","offset":-6,"tz":"CST"}},{"id":2501,"name":"Kino Veterans Memorial Stadium","link":"/api/v1/venues/2501","location":{"city":"Tucson","state":"Arizona","stateAbbrev":"AZ"},"timeZone":{"id":"America/Phoenix","offset":-7,"tz":"MST"}},{"id":19,"name":"Coors Field","link":"/api/v1/venues/19","location":{"city":"Denver","state":"Colorado","stateAbbrev":"CO","defaultCoordinates":{"latitude":39.756042,"longitude":-104.994136}},"timeZone":{"id":"America/Denver","offset":-7,"tz":"MST"}},{"id":2545,"name":"Christensen Stadium","link":"/api/v1/venues/2545","location":{"city":"Midland","state":"Texas","stateAbbrev":"TX"},"timeZone":{"id":"America/Chicago","offset":-6,"tz":"CST"}},{"id":2721,"name":"Robert F. Kennedy Memorial Stadium","link":"/api/v1/venues/2721","location":{"city":"Washington","state":"District of Columbia","stateAbbrev":"DC"},"timeZone":{"id":"America/New_York","offset":-5,"tz":"EST"}},{"id":2722,"name":"Hammons Field","link":"/api/v1/venues/2722","location":{"city":"Springfield","state":"Missouri","stateAbbrev":"MO"},"timeZone":{"id":"America/Chicago","offset":-6,"tz":"CST"}},{"id":2723,"name":"First National Bank Field","link":"/api/v1/venues/2723","location":{"city":"Greensboro","state":"North Carolina","stateAbbrev":"NC"},"timeZone":{"id":"America/New_York","offset":-5,"tz":"EST"}},{"id":2724,"name":"Louisville Slugger Field","link":"/api/v1/venues/2724","location":{"city":"Louisville","state":"Kentucky","stateAbbrev":"KY"},"timeZone":{"id":"America/Kentucky/Louisville","offset":-5,"tz":"EST"}},{"id":2725,"name":"NelsonCorp Field","link":"/api/v1/venues/2725","location":{"city":"Clinton","state":"Iowa","stateAbbrev":"IA"},"timeZone":{"id":"America/Chicago","offset":-6,"tz":"CST"}},{"id":2726,"name":"Dan Daniel Memorial Park","link":"/api/v1/venues/2726","location":{"city":"Danville","state":"Virginia","stateAbbrev":"VA"},"timeZone":{"id":"America/New_York","offset":-5,"tz":"EST"}},{"id":2727,"name":"Whitaker Bank Ballpark","link":"/api/v1/venues/2727","location":{"city":"Lexington","state":"Kentucky","stateAbbrev":"KY"},"timeZone":{"id":"America/New_York","offset":-5,"tz":"EST"}},{"id":2728,"name":"San Manuel Stadium","link":"/api/v1/venues/2728","location":{"city":"San Bernardino","state":"California","stateAbbrev":"CA"},"timeZone":{"id":"America/Los_Angeles","offset":-8,"tz":"PST"}},{"id":2729,"name":"Arthur W. Perdue Stadium","link":"/api/v1/venues/2729","location":{"city":"Salisbury","state":"Maryland","stateAbbrev":"MD"},"timeZone":{"id":"America/New_York","offset":-5,"tz":"EST"}},{"id":2730,"name":"Avista Stadium","link":"/api/v1/venues/2730","location":{"city":"Spokane","state":"Washington","stateAbbrev":"WA"},"timeZone":{"id":"America/Los_Angeles","offset":-8,"tz":"PST"}},{"id":2732,"name":"Blair County Ballpark","link":"/api/v1/venues/2732","location":{"city":"Altoona","state":"Pennsylvania","stateAbbrev":"PA"},"timeZone":{"id":"America/New_York","offset":-5,"tz":"EST"}},{"id":2733,"name":"Peoples Natural Gas Field","link":"/api/v1/venues/2733","location":{"city":"Altoona","state":"Pennsylvania","stateAbbrev":"PA"},"timeZone":{"id":"America/New_York","offset":-5,"tz":"EST"}},{"id":2734,"name":"Bowen Field","link":"/api/v1/venues/2734","location":{"city":"Bluefield","state":"West Virginia","stateAbbrev":"WV"},"timeZone":{"id":"America/New_York","offset":-5,"tz":"EST"}},{"id":2735,"name":"BB&T Ballpark","link":"/api/v1/venues/2735","location":{"city":"Williamsport","state":"Pennsylvania","stateAbbrev":"PA","defaultCoordinates":{"latitude":41.2419845,"longitude":-77.0475104}},"timeZone":{"id":"America/New_York","offset":-5,"tz":"EST"}},{"id":2736,"name":"Burlington Athletic Stadium","link":"/api/v1/venues/2736","location":{"city":"Burlington","state":"North Carolina","stateAbbrev":"NC"},"timeZone":{"id":"America/New_York","offset":-5,"tz":"EST"}},{"id":2737,"name":"C.O. Brown Stadium","link":"/api/v1/venues/2737","location":{"city":"Battle Creek","state":"Michigan","stateAbbrev":"MI"},"timeZone":{"id":"America/Detroit","offset":-5,"tz":"EST"}},{"id":2738,"name":"Eastwood Field","link":"/api/v1/venues/2738","location":{"city":"Niles","state":"Ohio","stateAbbrev":"OH"},"timeZone":{"id":"America/New_York","offset":-5,"tz":"EST"}},{"id":2739,"name":"Calfee Park","link":"/api/v1/venues/2739","location":{"city":"Pulaski","state":"Virginia","stateAbbrev":"VA"},"timeZone":{"id":"America/New_York","offset":-5,"tz":"EST"}},{"id":2740,"name":"Canal Park","link":"/api/v1/venues/2740","location":{"city":"Akron","state":"Ohio","stateAbbrev":"OH"},"timeZone":{"id":"America/New_York","offset":-5,"tz":"EST"}},{"id":2741,"name":"Capital City Stadium","link":"/api/v1/venues/2741","location":{"city":"Columbia","state":"South Carolina","stateAbbrev":"SC"},"timeZone":{"id":"America/New_York","offset":-5,"tz":"EST"}},{"id":2742,"name":"Carl Barger Baseball Complex","link":"/api/v1/venues/2742","location":{"city":"Melbourne","state":"Florida","stateAbbrev":"FL"},"timeZone":{"id":"America/New_York","offset":-5,"tz":"EST"}},{"id":2743,"name":"Carpenter Complex","link":"/api/v1/venues/2743","location":{"city":"Clearwater","state":"Florida","stateAbbrev":"FL"},"timeZone":{"id":"America/New_York","offset":-5,"tz":"EST"}},{"id":3429,"name":"Fluor Field at the West End","link":"/api/v1/venues/3429","location":{"city":"Greenville","state":"South Carolina","stateAbbrev":"SC"},"timeZone":{"id":"America/New_York","offset":-5,"tz":"EST"}},{"id":4629,"name":"Sloan Park","link":"/api/v1/venues/4629","location":{"city":"Mesa","state":"Arizona","stateAbbrev":"AZ","defaultCoordinates":{"latitude":33.43081,"longitude":-111.882}},"timeZone":{"id":"America/Phoenix","offset":-7,"tz":"MST"}},{"id":3049,"name":"Estadio Quisqueya Juan Marichal","link":"/api/v1/venues/3049","location":{"city":"Santo Domingo","stateAbbrev":"DR"},"timeZone":{"id":"America/Santo_Domingo","offset":-4,"tz":"AST"}},{"id":3051,"name":"Estadio Cibao","link":"/api/v1/venues/3051","location":{"city":"Santiago","stateAbbrev":"DR"},"timeZone":{"id":"America/Santo_Domingo","offset":-4,"tz":"AST"}},{"id":3054,"name":"Estadio Tetelo Vargas","link":"/api/v1/venues/3054","location":{"city":"San Pedro de Macoris","stateAbbrev":"DR"},"timeZone":{"id":"America/Santo_Domingo","offset":-4,"tz":"AST"}},{"id":3055,"name":"Estadio Francisco Micheli","link":"/api/v1/venues/3055","location":{"city":"La Romana","stateAbbrev":"DR"},"timeZone":{"id":"America/Santo_Domingo","offset":-4,"tz":"AST"}},{"id":3057,"name":"Estadio Julian Javier","link":"/api/v1/venues/3057","location":{"city":"San Francisco de Macoris","stateAbbrev":"DR"},"timeZone":{"id":"America/Santo_Domingo","offset":-4,"tz":"AST"}},{"id":3569,"name":"Bowling Green Ballpark","link":"/api/v1/venues/3569","location":{"city":"Bowling Green","state":"Kentucky","stateAbbrev":"KY"},"timeZone":{"id":"America/Chicago","offset":-6,"tz":"CST"}},{"id":3629,"name":"Pim Mulier Stadium","link":"/api/v1/venues/3629","location":{"city":"Haarlem"},"timeZone":{"id":"Europe/Amsterdam","offset":1,"tz":"CET"}},{"id":3869,"name":"Estadio Enzo Hernandez","link":"/api/v1/venues/3869","location":{"city":"El Tigre","stateAbbrev":"VZ"},"timeZone":{"id":"America/Caracas","offset":-4,"tz":"VET"}},{"id":4129,"name":"Homestead Sports Complex","link":"/api/v1/venues/4129","location":{"city":"Homestead","state":"Florida","stateAbbrev":"FL"},"timeZone":{"id":"America/New_York","offset":-5,"tz":"EST"}},{"id":5290,"name":"Dicolor Australia Stadium","link":"/api/v1/venues/5290","location":{"city":"Adelaide"},"timeZone":{"id":"Australia/Adelaide","offset":10,"tz":"ACDT"}},{"id":2744,"name":"Centennial Field","link":"/api/v1/venues/2744","location":{"city":"Burlington","state":"Vermont","stateAbbrev":"VT"},"timeZone":{"id":"America/New_York","offset":-5,"tz":"EST"}},{"id":2745,"name":"Cheney Stadium","link":"/api/v1/venues/2745","location":{"city":"Tacoma","state":"Washington","stateAbbrev":"WA"},"timeZone":{"id":"America/Los_Angeles","offset":-8,"tz":"PST"}},{"id":2746,"name":"Civic Stadium","link":"/api/v1/venues/2746","location":{"city":"Eugene","state":"Oregon","stateAbbrev":"OR"},"timeZone":{"id":"America/Los_Angeles","offset":-8,"tz":"PST"}},{"id":2747,"name":"TicketReturn.com Field","link":"/api/v1/venues/2747","location":{"city":"Myrtle Beach","state":"South Carolina","stateAbbrev":"SC"},"timeZone":{"id":"America/New_York","offset":-5,"tz":"EST"}},{"id":2748,"name":"Dehler Park","link":"/api/v1/venues/2748","location":{"city":"Billings","state":"Montana","stateAbbrev":"MT"},"timeZone":{"id":"America/Denver","offset":-7,"tz":"MST"}},{"id":2749,"name":"FNB Field","link":"/api/v1/venues/2749","location":{"city":"Harrisburg","state":"Pennsylvania","stateAbbrev":"PA"},"timeZone":{"id":"America/New_York","offset":-5,"tz":"EST"}},{"id":2750,"name":"Community Field","link":"/api/v1/venues/2750","location":{"city":"Burlington","state":"Iowa","stateAbbrev":"IA"},"timeZone":{"id":"America/Chicago","offset":-6,"tz":"CST"}},{"id":2751,"name":"Cooper Stadium","link":"/api/v1/venues/2751","location":{"city":"Columbus","state":"Ohio","stateAbbrev":"OH"},"timeZone":{"id":"America/New_York","offset":-5,"tz":"EST"}},{"id":2752,"name":"Damaschke Field","link":"/api/v1/venues/2752","location":{"city":"Oneonta","state":"New York","stateAbbrev":"NY"},"timeZone":{"id":"America/New_York","offset":-5,"tz":"EST"}},{"id":2753,"name":"Boyce Cox Field","link":"/api/v1/venues/2753","location":{"city":"Bristol","state":"Virginia","stateAbbrev":"VA"},"timeZone":{"id":"America/New_York","offset":-5,"tz":"EST"}},{"id":2754,"name":"Jackie Robinson Training Complex","link":"/api/v1/venues/2754","location":{"city":"Vero Beach","state":"Florida","stateAbbrev":"FL"},"timeZone":{"id":"America/New_York","offset":-5,"tz":"EST"}},{"id":2755,"name":"Dr Pepper Ballpark","link":"/api/v1/venues/2755","location":{"city":"Frisco","state":"Texas","stateAbbrev":"TX"},"timeZone":{"id":"America/Chicago","offset":-6,"tz":"CST"}},{"id":2756,"name":"Sahlen Field","link":"/api/v1/venues/2756","location":{"city":"Buffalo","state":"New York","stateAbbrev":"NY"},"timeZone":{"id":"America/New_York","offset":-5,"tz":"EST"}},{"id":2757,"name":"Dutchess Stadium","link":"/api/v1/venues/2757","location":{"city":"Wappingers Falls","state":"New York","stateAbbrev":"NY"},"timeZone":{"id":"America/New_York","offset":-5,"tz":"EST"}},{"id":5020,"name":"Amway Center","link":"/api/v1/venues/5020","location":{"city":"Orlando","state":"Florida","stateAbbrev":"FL"},"timeZone":{"id":"America/New_York","offset":-5,"tz":"EST"}},{"id":2758,"name":"Dwyer Stadium","link":"/api/v1/venues/2758","location":{"city":"Batavia","state":"New York","stateAbbrev":"NY"},"timeZone":{"id":"America/New_York","offset":-5,"tz":"EST"}},{"id":2759,"name":"Classic Park","link":"/api/v1/venues/2759","location":{"city":"Eastlake","state":"Ohio","stateAbbrev":"OH","defaultCoordinates":{"latitude":41.640758,"longitude":-81.436205}},"timeZone":{"id":"America/New_York","offset":-5,"tz":"EST"}},{"id":2760,"name":"Edward A. LeLacheur Park","link":"/api/v1/venues/2760","location":{"city":"Lowell","state":"Massachusetts","stateAbbrev":"MA"},"timeZone":{"id":"America/New_York","offset":-5,"tz":"EST"}},{"id":2761,"name":"Wake Forest Baseball Park","link":"/api/v1/venues/2761","location":{"city":"Winston-Salem","state":"North Carolina","stateAbbrev":"NC"},"timeZone":{"id":"America/New_York","offset":-5,"tz":"EST"}},{"id":2762,"name":"Funko Field","link":"/api/v1/venues/2762","location":{"city":"Everett","state":"Washington","stateAbbrev":"WA"},"timeZone":{"id":"America/Los_Angeles","offset":-8,"tz":"PST"}},{"id":2763,"name":"Falcon Park","link":"/api/v1/venues/2763","location":{"city":"Auburn","state":"New York","stateAbbrev":"NY"},"timeZone":{"id":"America/New_York","offset":-5,"tz":"EST"}},{"id":2764,"name":"Intimidators Stadium","link":"/api/v1/venues/2764","location":{"city":"Kannapolis","state":"North Carolina","stateAbbrev":"NC"},"timeZone":{"id":"America/New_York","offset":-5,"tz":"EST"}},{"id":2765,"name":"Fifth Third Ballpark","link":"/api/v1/venues/2765","location":{"city":"Comstock Park","state":"Michigan","stateAbbrev":"MI"},"timeZone":{"id":"America/Detroit","offset":-5,"tz":"EST"}},{"id":2766,"name":"Day Air Ballpark","link":"/api/v1/venues/2766","location":{"city":"Dayton","state":"Ohio","stateAbbrev":"OH"},"timeZone":{"id":"America/New_York","offset":-5,"tz":"EST"}},{"id":2767,"name":"Fifth Third Field","link":"/api/v1/venues/2767","location":{"city":"Toledo","state":"Ohio","stateAbbrev":"OH"},"timeZone":{"id":"America/New_York","offset":-5,"tz":"EST"}},{"id":2768,"name":"Security Bank Ballpark","link":"/api/v1/venues/2768","location":{"city":"Midland","state":"Texas","stateAbbrev":"TX"},"timeZone":{"id":"America/Chicago","offset":-6,"tz":"CST"}},{"id":2769,"name":"FirstEnergy Stadium","link":"/api/v1/venues/2769","location":{"city":"Reading","state":"Pennsylvania","stateAbbrev":"PA"},"timeZone":{"id":"America/New_York","offset":-5,"tz":"EST"}},{"id":2770,"name":"Lew Wolff Training Complex","link":"/api/v1/venues/2770","location":{"city":"Mesa","state":"Arizona","stateAbbrev":"AZ"},"timeZone":{"id":"America/Phoenix","offset":-7,"tz":"MST"}},{"id":2771,"name":"Fox Cities Stadium","link":"/api/v1/venues/2771","location":{"city":"Appleton","state":"Wisconsin","stateAbbrev":"WI"},"timeZone":{"id":"America/Chicago","offset":-6,"tz":"CST"}},{"id":2772,"name":"Smith's Ballpark","link":"/api/v1/venues/2772","location":{"city":"Salt Lake City","state":"Utah","stateAbbrev":"UT"},"timeZone":{"id":"America/Denver","offset":-7,"tz":"MST"}},{"id":2773,"name":"Frontier Field","link":"/api/v1/venues/2773","location":{"city":"Rochester","state":"New York","stateAbbrev":"NY"},"timeZone":{"id":"America/New_York","offset":-5,"tz":"EST"}},{"id":2774,"name":"Northwest Federal Field","link":"/api/v1/venues/2774","location":{"city":"Woodbridge","state":"Virginia","stateAbbrev":"VA"},"timeZone":{"id":"America/New_York","offset":-5,"tz":"EST"}},{"id":2775,"name":"Gene Autry Park","link":"/api/v1/venues/2775","location":{"city":"Mesa","state":"Arizona","stateAbbrev":"AZ"},"timeZone":{"id":"America/Phoenix","offset":-7,"tz":"MST"}},{"id":2776,"name":"Golden Park","link":"/api/v1/venues/2776","location":{"city":"Columbus","state":"Georgia","stateAbbrev":"GA"},"timeZone":{"id":"America/New_York","offset":-5,"tz":"EST"}},{"id":2777,"name":"Grainger Stadium","link":"/api/v1/venues/2777","location":{"city":"Kinston","state":"North Carolina","stateAbbrev":"NC"},"timeZone":{"id":"America/New_York","offset":-5,"tz":"EST"}},{"id":2778,"name":"Grayson Stadium","link":"/api/v1/venues/2778","location":{"city":"Savannah","state":"Georgia","stateAbbrev":"GA"},"timeZone":{"id":"America/New_York","offset":-5,"tz":"EST"}},{"id":2779,"name":"Hadlock Field","link":"/api/v1/venues/2779","location":{"city":"Portland","state":"Maine","stateAbbrev":"ME"},"timeZone":{"id":"America/New_York","offset":-5,"tz":"EST"}},{"id":2780,"name":"Hank Aaron Stadium","link":"/api/v1/venues/2780","location":{"city":"Mobile","state":"Alabama","stateAbbrev":"AL"},"timeZone":{"id":"America/Chicago","offset":-6,"tz":"CST"}},{"id":2781,"name":"Harbor Park","link":"/api/v1/venues/2781","location":{"city":"Norfolk","state":"Virginia","stateAbbrev":"VA"},"timeZone":{"id":"America/New_York","offset":-5,"tz":"EST"}},{"id":2782,"name":"Nymeo Field","link":"/api/v1/venues/2782","location":{"city":"Frederick","state":"Maryland","stateAbbrev":"MD"},"timeZone":{"id":"America/New_York","offset":-5,"tz":"EST"}},{"id":2783,"name":"Herschel Greer Stadium","link":"/api/v1/venues/2783","location":{"city":"Nashville","state":"Tennessee","stateAbbrev":"TN"},"timeZone":{"id":"America/Chicago","offset":-6,"tz":"CST"}},{"id":2784,"name":"TVA Credit Union Ballpark","link":"/api/v1/venues/2784","location":{"city":"Johnson City","state":"Tennessee","stateAbbrev":"TN"},"timeZone":{"id":"America/New_York","offset":-5,"tz":"EST"}},{"id":2785,"name":"Hunnicutt Field","link":"/api/v1/venues/2785","location":{"city":"Princeton","state":"West Virginia","stateAbbrev":"WV"},"timeZone":{"id":"America/New_York","offset":-5,"tz":"EST"}},{"id":2786,"name":"Hunter Wright Stadium","link":"/api/v1/venues/2786","location":{"city":"Kingsport","state":"Tennessee","stateAbbrev":"TN"},"timeZone":{"id":"America/New_York","offset":-5,"tz":"EST"}},{"id":2787,"name":"Jackie Robinson Ballpark","link":"/api/v1/venues/2787","location":{"city":"Daytona Beach","state":"Florida","stateAbbrev":"FL"},"timeZone":{"id":"America/New_York","offset":-5,"tz":"EST"}},{"id":2788,"name":"Northeast Community Credit Union Ballpark","link":"/api/v1/venues/2788","location":{"city":"Elizabethon","state":"Tennessee","stateAbbrev":"TN"},"timeZone":{"id":"America/New_York","offset":-5,"tz":"EST"}},{"id":2789,"name":"Joe W. Davis Municipal Stadium","link":"/api/v1/venues/2789","location":{"city":"Huntsville","state":"Alabama","stateAbbrev":"AL"},"timeZone":{"id":"America/Chicago","offset":-6,"tz":"CST"}},{"id":2790,"name":"Modern Woodmen Park","link":"/api/v1/venues/2790","location":{"city":"Davenport","state":"Iowa","stateAbbrev":"IA"},"timeZone":{"id":"America/Chicago","offset":-6,"tz":"CST"}},{"id":2791,"name":"John Thurman Field","link":"/api/v1/venues/2791","location":{"city":"Modesto","state":"California","stateAbbrev":"CA"},"timeZone":{"id":"America/Los_Angeles","offset":-8,"tz":"PST"}},{"id":2792,"name":"Joseph L. Bruno Stadium","link":"/api/v1/venues/2792","location":{"city":"Troy","state":"New York","stateAbbrev":"NY"},"timeZone":{"id":"America/New_York","offset":-5,"tz":"EST"}},{"id":2793,"name":"Frawley Stadium","link":"/api/v1/venues/2793","location":{"city":"Wilmington","state":"Delaware","stateAbbrev":"DE"},"timeZone":{"id":"America/New_York","offset":-5,"tz":"EST"}},{"id":2794,"name":"Kindrick Legion Field","link":"/api/v1/venues/2794","location":{"city":"Helena","state":"Montana","stateAbbrev":"MT"},"timeZone":{"id":"America/Denver","offset":-7,"tz":"MST"}},{"id":2795,"name":"MCU Park","link":"/api/v1/venues/2795","location":{"city":"Brooklyn","state":"New York","stateAbbrev":"NY"},"timeZone":{"id":"America/New_York","offset":-5,"tz":"EST"}},{"id":2796,"name":"L.P. Frans Stadium","link":"/api/v1/venues/2796","location":{"city":"Hickory","state":"North Carolina","stateAbbrev":"NC"},"timeZone":{"id":"America/New_York","offset":-5,"tz":"EST"}},{"id":2797,"name":"PNC Field","link":"/api/v1/venues/2797","location":{"city":"Moosic","state":"Pennsylvania","stateAbbrev":"PA","defaultCoordinates":{"latitude":41.360251,"longitude":-75.684201}},"timeZone":{"id":"America/New_York","offset":-5,"tz":"EST"}},{"id":2798,"name":"Lake Olmstead Stadium","link":"/api/v1/venues/2798","location":{"city":"Augusta","state":"Georgia","stateAbbrev":"GA"},"timeZone":{"id":"America/New_York","offset":-5,"tz":"EST"}},{"id":2799,"name":"The Hangar","link":"/api/v1/venues/2799","location":{"city":"Lancaster","state":"California","stateAbbrev":"CA"},"timeZone":{"id":"America/Los_Angeles","offset":-8,"tz":"PST"}},{"id":2800,"name":"Lawrence-Dumont Stadium","link":"/api/v1/venues/2800","location":{"city":"Wichita","state":"Kansas","stateAbbrev":"KS"},"timeZone":{"id":"America/Chicago","offset":-6,"tz":"CST"}},{"id":2801,"name":"Centene Stadium at Legion Park","link":"/api/v1/venues/2801","location":{"city":"Great Falls","state":"Montana","stateAbbrev":"MT"},"timeZone":{"id":"America/Denver","offset":-7,"tz":"MST"}},{"id":2802,"name":"Lindquist Field","link":"/api/v1/venues/2802","location":{"city":"Ogden","state":"Utah","stateAbbrev":"UT"},"timeZone":{"id":"America/Denver","offset":-7,"tz":"MST"}},{"id":2803,"name":"Calvin Falwell Field","link":"/api/v1/venues/2803","location":{"city":"Lynchburg","state":"Virginia","stateAbbrev":"VA"},"timeZone":{"id":"America/New_York","offset":-5,"tz":"EST"}},{"id":2804,"name":"Lynx Stadium","link":"/api/v1/venues/2804","location":{"city":"Ottawa","state":"Ontario","stateAbbrev":"ON"},"timeZone":{"id":"America/Toronto","offset":-5,"tz":"EST"}},{"id":2805,"name":"Maryvale Baseball Complex","link":"/api/v1/venues/2805","location":{"city":"Phoenix","state":"Arizona","stateAbbrev":"AZ"},"timeZone":{"id":"America/Phoenix","offset":-7,"tz":"MST"}},{"id":2806,"name":"Heritage Field","link":"/api/v1/venues/2806","location":{"city":"Adelanto","state":"California","stateAbbrev":"CA"},"timeZone":{"id":"America/Los_Angeles","offset":-8,"tz":"PST"}},{"id":2807,"name":"McCormick Field","link":"/api/v1/venues/2807","location":{"city":"Asheville","state":"North Carolina","stateAbbrev":"NC"},"timeZone":{"id":"America/New_York","offset":-5,"tz":"EST"}},{"id":2808,"name":"McCoy Stadium","link":"/api/v1/venues/2808","location":{"city":"Pawtucket","state":"Rhode Island","stateAbbrev":"RI"},"timeZone":{"id":"America/New_York","offset":-5,"tz":"EST"}},{"id":3789,"name":"Greater Nevada Field","link":"/api/v1/venues/3789","location":{"city":"Reno","state":"Nevada","stateAbbrev":"NV"},"timeZone":{"id":"America/Los_Angeles","offset":-8,"tz":"PST"}},{"id":3749,"name":"Parque Yldefonso Sola Morales","link":"/api/v1/venues/3749","location":{"city":"Caguas","state":"Puerto Rico","stateAbbrev":"PR"},"timeZone":{"id":"America/Puerto_Rico","offset":-4,"tz":"AST"}},{"id":3750,"name":"Estadio Isidoro Cholo Garcia","link":"/api/v1/venues/3750","location":{"city":"Mayaguez","state":"Puerto Rico","stateAbbrev":"PR"},"timeZone":{"id":"America/Puerto_Rico","offset":-4,"tz":"AST"}},{"id":3751,"name":"Estadio Francisco Paquito Montaner","link":"/api/v1/venues/3751","location":{"city":"Ponce","state":"Puerto Rico","stateAbbrev":"PR"},"timeZone":{"id":"America/Puerto_Rico","offset":-4,"tz":"AST"}},{"id":3752,"name":"Estadio Luis Rodriguez Olmo ","link":"/api/v1/venues/3752","location":{"city":"Arecibo","state":"Puerto Rico","stateAbbrev":"PR"},"timeZone":{"id":"America/Puerto_Rico","offset":-4,"tz":"AST"}},{"id":3790,"name":"Parkview Field","link":"/api/v1/venues/3790","location":{"city":"Fort Wayne","state":"Indiana","stateAbbrev":"IN"},"timeZone":{"id":"America/Indiana/Indianapolis","offset":-5,"tz":"EST"}},{"id":5186,"name":"Webster Bank Arena","link":"/api/v1/venues/5186","location":{"city":"Bridgeport","state":"Connecticut","stateAbbrev":"CT"},"timeZone":{"id":"America/New_York","offset":-5,"tz":"EST"}},{"id":2867,"name":"Municipal Stadium","link":"/api/v1/venues/2867","location":{"city":"Greenville ","state":"South Carolina","stateAbbrev":"SC"},"timeZone":{"id":"America/New_York","offset":-5,"tz":"EST"}},{"id":2889,"name":"Busch Stadium","link":"/api/v1/venues/2889","location":{"city":"St. Louis","state":"Missouri","stateAbbrev":"MO","defaultCoordinates":{"latitude":38.62256667,"longitude":-90.19286667}},"timeZone":{"id":"America/Chicago","offset":-6,"tz":"CST"}},{"id":3109,"name":"League Park","link":"/api/v1/venues/3109","location":{"city":"Washington","state":"District of Columbia","stateAbbrev":"DC"},"timeZone":{"id":"America/New_York","offset":-4,"tz":"EDT"}},{"id":3110,"name":"League Park","link":"/api/v1/venues/3110","location":{"city":"Washington","state":"District of Columbia","stateAbbrev":"DC"},"timeZone":{"id":"America/New_York","offset":-4,"tz":"EDT"}},{"id":3111,"name":"Arlington Stadium","link":"/api/v1/venues/3111","location":{"city":"Arlington","state":"Texas","stateAbbrev":"TX"},"timeZone":{"id":"America/Chicago","offset":-6,"tz":"CST"}},{"id":3112,"name":"Atlanta-Fulton County Stadium","link":"/api/v1/venues/3112","location":{"city":"Atlanta","state":"Georgia","stateAbbrev":"GA"},"timeZone":{"id":"America/New_York","offset":-5,"tz":"EST"}},{"id":3113,"name":"Baker Bowl","link":"/api/v1/venues/3113","location":{"city":"Philadelphia","state":"Pennsylvania","stateAbbrev":"PA"},"timeZone":{"id":"America/New_York","offset":-5,"tz":"EST"}},{"id":3114,"name":"Bennett Park","link":"/api/v1/venues/3114","location":{"city":"Detroit","state":"Michigan","stateAbbrev":"MI"},"timeZone":{"id":"America/Detroit","offset":-4,"tz":"EDT"}},{"id":3115,"name":"Braves Field","link":"/api/v1/venues/3115","location":{"city":"Boston","state":"Massachusetts","stateAbbrev":"MA"},"timeZone":{"id":"America/New_York","offset":-5,"tz":"EST"}},{"id":3116,"name":"Cleveland Municipal Stadium","link":"/api/v1/venues/3116","location":{"city":"Cleveland","state":"Ohio","stateAbbrev":"OH"},"timeZone":{"id":"America/New_York","offset":-5,"tz":"EST"}},{"id":3117,"name":"Colt Stadium","link":"/api/v1/venues/3117","location":{"city":"Houston","state":"Texas","stateAbbrev":"TX"},"timeZone":{"id":"America/Chicago","offset":-6,"tz":"CST"}},{"id":3118,"name":"Columbia Park","link":"/api/v1/venues/3118","location":{"city":"Philadelphia","state":"Pennsylvania","stateAbbrev":"PA"},"timeZone":{"id":"America/New_York","offset":-4,"tz":"EDT"}},{"id":3119,"name":"Comiskey Park","link":"/api/v1/venues/3119","location":{"city":"Chicago","state":"Illinois","stateAbbrev":"IL"},"timeZone":{"id":"America/Chicago","offset":-6,"tz":"CST"}},{"id":3120,"name":"Crosley Field","link":"/api/v1/venues/3120","location":{"city":"Cincinnati","state":"Ohio","stateAbbrev":"OH"},"timeZone":{"id":"America/New_York","offset":-5,"tz":"EST"}},{"id":3121,"name":"Ebbets Field","link":"/api/v1/venues/3121","location":{"city":"Brooklyn","state":"New York","stateAbbrev":"NY"},"timeZone":{"id":"America/New_York","offset":-5,"tz":"EST"}},{"id":3122,"name":"Estadio Roberto Clemente Walker","link":"/api/v1/venues/3122","location":{"city":"Carolina","state":"Puerto Rico","stateAbbrev":"PR"},"timeZone":{"id":"America/Puerto_Rico","offset":-4,"tz":"AST"}},{"id":3123,"name":"Exhibition Stadium","link":"/api/v1/venues/3123","location":{"city":"Toronto","state":"Ontario","stateAbbrev":"ON"},"timeZone":{"id":"America/Toronto","offset":-5,"tz":"EST"}},{"id":3124,"name":"Exposition Park","link":"/api/v1/venues/3124","location":{"city":"Pittsburgh","state":"Pennsylvania","stateAbbrev":"PA"},"timeZone":{"id":"America/New_York","offset":-4,"tz":"EDT"}},{"id":3125,"name":"Forbes Field","link":"/api/v1/venues/3125","location":{"city":"Pittsburgh","state":"Pennsylvania","stateAbbrev":"PA"},"timeZone":{"id":"America/New_York","offset":-5,"tz":"EST"}},{"id":3126,"name":"Griffith Stadium","link":"/api/v1/venues/3126","location":{"city":"Washington","state":"District of Columbia","stateAbbrev":"DC"},"timeZone":{"id":"America/New_York","offset":-5,"tz":"EST"}},{"id":3127,"name":"Hilltop Park","link":"/api/v1/venues/3127","location":{"city":"New York","state":"New York","stateAbbrev":"NY"},"timeZone":{"id":"America/New_York","offset":-4,"tz":"EDT"}},{"id":3128,"name":"Huntington Avenue Grounds","link":"/api/v1/venues/3128","location":{"city":"Boston","state":"Massachusetts","stateAbbrev":"MA"},"timeZone":{"id":"America/New_York","offset":-4,"tz":"EDT"}},{"id":3129,"name":"Jarry Park","link":"/api/v1/venues/3129","location":{"city":"Montreal","stateAbbrev":"QB"},"timeZone":{"id":"America/Toronto","offset":-5,"tz":"EST"}},{"id":3132,"name":"Lloyd Street Grounds","link":"/api/v1/venues/3132","location":{"city":"Milwaukee","state":"Wisconsin","stateAbbrev":"WI"},"timeZone":{"id":"America/Chicago","offset":-5,"tz":"CDT"}},{"id":3133,"name":"Los Angeles Memorial Coliseum","link":"/api/v1/venues/3133","location":{"city":"Los Angeles","state":"California","stateAbbrev":"CA"},"timeZone":{"id":"America/Los_Angeles","offset":-8,"tz":"PST"}},{"id":3134,"name":"Memorial Stadium","link":"/api/v1/venues/3134","location":{"city":"Baltimore","state":"Maryland","stateAbbrev":"MD"},"timeZone":{"id":"America/New_York","offset":-5,"tz":"EST"}},{"id":3135,"name":"Metropolitan Stadium","link":"/api/v1/venues/3135","location":{"city":"Bloomington ","state":"Michigan","stateAbbrev":"MI"},"timeZone":{"id":"America/Chicago","offset":-5,"tz":"EST"}},{"id":3136,"name":"Mile High Stadium","link":"/api/v1/venues/3136","location":{"city":"Denver","state":"Colorado","stateAbbrev":"CO"},"timeZone":{"id":"America/Denver","offset":-7,"tz":"MST"}},{"id":3137,"name":"Municipal Stadium","link":"/api/v1/venues/3137","location":{"city":"Kansas City","state":"Missouri","stateAbbrev":"MO"},"timeZone":{"id":"America/Chicago","offset":-6,"tz":"CST"}},{"id":3138,"name":"Palace of the Fans","link":"/api/v1/venues/3138","location":{"city":"Cincinnati","state":"Ohio","stateAbbrev":"OH"},"timeZone":{"id":"America/New_York","offset":-4,"tz":"EDT"}},{"id":3139,"name":"Polo Grounds","link":"/api/v1/venues/3139","location":{"city":"New York","state":"New York","stateAbbrev":"NY"},"timeZone":{"id":"America/New_York","offset":-4,"tz":"EDT"}},{"id":3140,"name":"Polo Grounds","link":"/api/v1/venues/3140","location":{"city":"New York","state":"New York","stateAbbrev":"NY"},"timeZone":{"id":"America/New_York","offset":-5,"tz":"EST"}},{"id":3141,"name":"Robison Field","link":"/api/v1/venues/3141","location":{"city":"St. Louis","state":"Missouri","stateAbbrev":"MO"},"timeZone":{"id":"America/Chicago","offset":-6,"tz":"CST"}},{"id":3142,"name":"Seals Stadium","link":"/api/v1/venues/3142","location":{"city":"San Francisco  ","state":"California","stateAbbrev":"CA"},"timeZone":{"id":"America/Los_Angeles","offset":-8,"tz":"PST"}},{"id":3143,"name":"Shibe Park","link":"/api/v1/venues/3143","location":{"city":"Philadelphia","state":"Pennsylvania","stateAbbrev":"PA"},"timeZone":{"id":"America/New_York","offset":-5,"tz":"EST"}},{"id":3144,"name":"South End Grounds","link":"/api/v1/venues/3144","location":{"city":"Boston","state":"Massachusetts","stateAbbrev":"MA"},"timeZone":{"id":"America/New_York","offset":-5,"tz":"EST"}},{"id":3147,"name":"South End Grounds","link":"/api/v1/venues/3147","location":{"city":"Boston","state":"Massachusetts","stateAbbrev":"MA"},"timeZone":{"id":"America/New_York","offset":-4,"tz":"EDT"}},{"id":3148,"name":"South Side Park ","link":"/api/v1/venues/3148","location":{"city":"Chicago","state":"Illinois","stateAbbrev":"IL"},"timeZone":{"id":"America/Chicago","offset":-5,"tz":"CDT"}},{"id":3149,"name":"Sportsman's Park","link":"/api/v1/venues/3149","location":{"city":"St. Louis","state":"Missouri","stateAbbrev":"MO"},"timeZone":{"id":"America/Chicago","offset":-5,"tz":"CDT"}},{"id":3150,"name":"Washington Park ","link":"/api/v1/venues/3150","location":{"city":"Brooklyn","state":"New York","stateAbbrev":"NY"},"timeZone":{"id":"America/New_York","offset":-4,"tz":"EDT"}},{"id":3153,"name":"Wrigley Field","link":"/api/v1/venues/3153","location":{"city":"Los Angeles","state":"California","stateAbbrev":"CA"},"timeZone":{"id":"America/Los_Angeles","offset":-8,"tz":"PST"}},{"id":3154,"name":"Aloha Stadium","link":"/api/v1/venues/3154","location":{"city":"Honolulu","state":"Hawaii","stateAbbrev":"HI"},"timeZone":{"id":"Pacific/Honolulu","offset":-10,"tz":"HT"}},{"id":3155,"name":"Armory Park","link":"/api/v1/venues/3155","location":{"city":"Toledo","state":"Ohio","stateAbbrev":"OH"},"timeZone":{"id":"America/New_York","offset":-4,"tz":"EDT"}},{"id":3156,"name":"Burns Park","link":"/api/v1/venues/3156","location":{"city":"Detroit","state":"Michigan","stateAbbrev":"MI"},"timeZone":{"id":"America/Detroit","offset":-4,"tz":"EDT"}},{"id":3157,"name":"Fairview Park","link":"/api/v1/venues/3157","location":{"city":"Dayton","state":"Ohio","stateAbbrev":"OH"},"timeZone":{"id":"America/New_York","offset":-4,"tz":"EDT"}},{"id":3158,"name":"Jailhouse Flats","link":"/api/v1/venues/3158","location":{"city":"Fort Wayne","state":"Indiana","stateAbbrev":"IN"},"timeZone":{"id":"America/Indiana/Indianapolis","offset":-4,"tz":"EDT"}},{"id":3159,"name":"League Park","link":"/api/v1/venues/3159","location":{"city":"Cleveland","state":"Ohio","stateAbbrev":"OH"},"timeZone":{"id":"America/New_York","offset":-4,"tz":"EDT"}},{"id":3160,"name":"League Park","link":"/api/v1/venues/3160","location":{"city":"Cincinnati","state":"Ohio","stateAbbrev":"OH"},"timeZone":{"id":"America/New_York","offset":-4,"tz":"EDT"}},{"id":3161,"name":"Mahaffey Park","link":"/api/v1/venues/3161","location":{"city":"Canton","state":"Ohio","stateAbbrev":"OH"},"timeZone":{"id":"America/New_York","offset":-4,"tz":"EDT"}},{"id":3162,"name":"Neil Park","link":"/api/v1/venues/3162","location":{"city":"Columbus","state":"Ohio","stateAbbrev":"OH"},"timeZone":{"id":"America/New_York","offset":-4,"tz":"EDT"}},{"id":3163,"name":"Neil Park","link":"/api/v1/venues/3163","location":{"city":"Columbus","state":"Ohio","stateAbbrev":"OH"},"timeZone":{"id":"America/New_York","offset":-4,"tz":"EDT"}},{"id":3164,"name":"Oriole Park","link":"/api/v1/venues/3164","location":{"city":"Baltimore","state":"Maryland","stateAbbrev":"MD"},"timeZone":{"id":"America/New_York","offset":-4,"tz":"EDT"}},{"id":3165,"name":"Ramona Park","link":"/api/v1/venues/3165","location":{"city":"Grand Rapids","state":"Michigan","stateAbbrev":"MI"},"timeZone":{"id":"America/Detroit","offset":-5,"tz":"EST"}},{"id":3166,"name":"Rocky Point Park","link":"/api/v1/venues/3166","location":{"city":"Warwick","state":"Rhode Island","stateAbbrev":"RI"},"timeZone":{"id":"America/New_York","offset":-4,"tz":"EDT"}},{"id":3167,"name":"Sportsman's Park","link":"/api/v1/venues/3167","location":{"city":"St. Louis","state":"Missouri","stateAbbrev":"MO"},"timeZone":{"id":"America/Chicago","offset":-5,"tz":"EST"}},{"id":3168,"name":"Sportsman's Park","link":"/api/v1/venues/3168","location":{"city":"St. Louis","state":"Missouri","stateAbbrev":"MO"},"timeZone":{"id":"America/Chicago","offset":-5,"tz":"EST"}},{"id":3169,"name":"West Side Park","link":"/api/v1/venues/3169","location":{"city":"Chicago","state":"Illinois","stateAbbrev":"IL"},"timeZone":{"id":"America/Chicago","offset":-5,"tz":"CDT"}},{"id":3170,"name":"Wiedenmeyer's Park","link":"/api/v1/venues/3170","location":{"city":"Newark","state":"New Jersey","stateAbbrev":"NJ"},"timeZone":{"id":"America/New_York","offset":-4,"tz":"EDT"}},{"id":3230,"name":"Coca-Cola Park","link":"/api/v1/venues/3230","location":{"city":"Allentown","state":"Pennsylvania","stateAbbrev":"PA"},"timeZone":{"id":"America/New_York","offset":-5,"tz":"EST"}},{"id":3309,"name":"Nationals Park","link":"/api/v1/venues/3309","location":{"city":"Washington","state":"District of Columbia","stateAbbrev":"DC","defaultCoordinates":{"latitude":38.872861,"longitude":-77.007501}},"timeZone":{"id":"America/New_York","offset":-5,"tz":"EST"}},{"id":3310,"name":"Francis Wong Stadium","link":"/api/v1/venues/3310","location":{"city":"Hilo","state":"Hawaii","stateAbbrev":"HI"},"timeZone":{"id":"Pacific/Honolulu","offset":-10,"tz":"HT"}},{"id":3311,"name":"Maehara Baseball Stadium ","link":"/api/v1/venues/3311","location":{"city":"Lahaina","state":"Hawaii","stateAbbrev":"HI"},"timeZone":{"id":"Pacific/Honolulu","offset":-10,"tz":"HT"}},{"id":3312,"name":"Target Field","link":"/api/v1/venues/3312","location":{"city":"Minneapolis","state":"Minnesota","stateAbbrev":"MN","defaultCoordinates":{"latitude":44.981829,"longitude":-93.277891}},"timeZone":{"id":"America/Chicago","offset":-6,"tz":"CST"}},{"id":3313,"name":"Yankee Stadium","link":"/api/v1/venues/3313","location":{"city":"Bronx","state":"New York","stateAbbrev":"NY","defaultCoordinates":{"latitude":40.82919482,"longitude":-73.9264977}},"timeZone":{"id":"America/New_York","offset":-5,"tz":"EST"}},{"id":3709,"name":"St. Albert Legion Park","link":"/api/v1/venues/3709","location":{"city":"St. Albert","state":"Alberta","stateAbbrev":"AB"},"timeZone":{"id":"America/Edmonton","offset":-7,"tz":"MST"}},{"id":3889,"name":"Enrique 'Trapo' Torrebiarte Stadium","link":"/api/v1/venues/3889","location":{"city":"Guatemala City"},"timeZone":{"id":"America/Guatemala","offset":-6,"tz":"CST"}},{"id":3949,"name":"Rickwood Field","link":"/api/v1/venues/3949","location":{"city":"Birmingham","state":"Alabama","stateAbbrev":"AL"},"timeZone":{"id":"America/Chicago","offset":-6,"tz":"CST"}},{"id":3969,"name":"Estadio Nuevo Laredo","link":"/api/v1/venues/3969","location":{"city":"Nuevo Laredo","stateAbbrev":"MX"},"timeZone":{"id":"America/Monterrey","offset":-6,"tz":"CST"}},{"id":3970,"name":"Huntington Park","link":"/api/v1/venues/3970","location":{"city":"Columbus","state":"Ohio","stateAbbrev":"OH"},"timeZone":{"id":"America/New_York","offset":-5,"tz":"EST"}},{"id":5300,"name":"David L. Lawrence Convention Center","link":"/api/v1/venues/5300","location":{"city":"Pittsburgh","state":"Pennsylvania","stateAbbrev":"PA"},"timeZone":{"id":"America/New_York","offset":-5,"tz":"EST"}},{"id":2809,"name":"McDermott Field","link":"/api/v1/venues/2809","location":{"city":"Idaho Falls","state":"Idaho","stateAbbrev":"ID"},"timeZone":{"id":"America/Boise","offset":-7,"tz":"MST"}},{"id":2810,"name":"Memorial Stadium","link":"/api/v1/venues/2810","location":{"city":"Boise","state":"Idaho","stateAbbrev":"ID"},"timeZone":{"id":"America/Boise","offset":-7,"tz":"MST"}},{"id":2811,"name":"Memorial Stadium","link":"/api/v1/venues/2811","location":{"city":"Fort Wayne","state":"Indiana","stateAbbrev":"IN"},"timeZone":{"id":"America/Indiana/Indianapolis","offset":-5,"tz":"EST"}},{"id":2812,"name":"Mike Lansing Field","link":"/api/v1/venues/2812","location":{"city":"Casper","state":"Wyoming","stateAbbrev":"WY"},"timeZone":{"id":"America/Denver","offset":-7,"tz":"MST"}},{"id":2813,"name":"Trustmark Park","link":"/api/v1/venues/2813","location":{"city":"Pearl","state":"Mississippi","stateAbbrev":"MS"},"timeZone":{"id":"America/Chicago","offset":-6,"tz":"CST"}},{"id":2814,"name":"Montgomery Riverwalk Stadium","link":"/api/v1/venues/2814","location":{"city":"Montgomery","state":"Alabama","stateAbbrev":"AL"},"timeZone":{"id":"America/Chicago","offset":-6,"tz":"CST"}},{"id":2815,"name":"Excite Ballpark","link":"/api/v1/venues/2815","location":{"city":"San Jose","state":"California","stateAbbrev":"CA"},"timeZone":{"id":"America/Los_Angeles","offset":-8,"tz":"PST"}},{"id":2816,"name":"Municipal Stadium","link":"/api/v1/venues/2816","location":{"city":"Hagerstown","state":"Maryland","stateAbbrev":"MD"},"timeZone":{"id":"America/New_York","offset":-5,"tz":"EST"}},{"id":2817,"name":"Nat Bailey Stadium","link":"/api/v1/venues/2817","location":{"city":"Vancouver","state":"British Columbia","stateAbbrev":"BC"},"timeZone":{"id":"America/Vancouver","offset":-8,"tz":"PST"}},{"id":2818,"name":"Nelson Wolff Stadium","link":"/api/v1/venues/2818","location":{"city":"San Antonio","state":"Texas","stateAbbrev":"TX"},"timeZone":{"id":"America/Chicago","offset":-6,"tz":"CST"}},{"id":2819,"name":"New Britain Stadium","link":"/api/v1/venues/2819","location":{"city":"New Britain","state":"Connecticut","stateAbbrev":"CT"},"timeZone":{"id":"America/New_York","offset":-5,"tz":"EST"}},{"id":2820,"name":"NYSEG Stadium","link":"/api/v1/venues/2820","location":{"city":"Binghamton","state":"New York","stateAbbrev":"NY"},"timeZone":{"id":"America/New_York","offset":-5,"tz":"EST"}},{"id":2821,"name":"Dozer Park","link":"/api/v1/venues/2821","location":{"city":"Peoria","state":"Illinois","stateAbbrev":"IL"},"timeZone":{"id":"America/Chicago","offset":-6,"tz":"CST"}},{"id":2822,"name":"Cooley Law School Stadium","link":"/api/v1/venues/2822","location":{"city":"Lansing","state":"Michigan","stateAbbrev":"MI"},"timeZone":{"id":"America/Detroit","offset":-5,"tz":"EST"}},{"id":2823,"name":"NBT Bank Stadium","link":"/api/v1/venues/2823","location":{"city":"Syracuse","state":"New York","stateAbbrev":"NY"},"timeZone":{"id":"America/New_York","offset":-5,"tz":"EST"}},{"id":2824,"name":"Papago Sports Complex","link":"/api/v1/venues/2824","location":{"city":"Phoenix","state":"Arizona","stateAbbrev":"AZ"},"timeZone":{"id":"America/Phoenix","offset":-7,"tz":"MST"}},{"id":2825,"name":"Home of the OWLZ","link":"/api/v1/venues/2825","location":{"city":"Orem","state":"Utah","stateAbbrev":"UT"},"timeZone":{"id":"America/Denver","offset":-7,"tz":"MST"}},{"id":2826,"name":"Gesa Stadium","link":"/api/v1/venues/2826","location":{"city":"Pasco","state":"Washington","stateAbbrev":"WA"},"timeZone":{"id":"America/Los_Angeles","offset":-8,"tz":"PST"}},{"id":2827,"name":"Northwestern Medicine Field","link":"/api/v1/venues/2827","location":{"city":"Geneva","state":"Illinois","stateAbbrev":"IL"},"timeZone":{"id":"America/Chicago","offset":-6,"tz":"CST"}},{"id":2828,"name":"Pioneer Park","link":"/api/v1/venues/2828","location":{"city":"Greeneville","state":"Tennessee","stateAbbrev":"TN"},"timeZone":{"id":"America/New_York","offset":-5,"tz":"EST"}},{"id":2829,"name":"Pirate City Complex","link":"/api/v1/venues/2829","location":{"city":"Bradenton","state":"Florida","stateAbbrev":"FL"},"timeZone":{"id":"America/New_York","offset":-5,"tz":"EST"}},{"id":2830,"name":"Ogren Park Allegiance Field","link":"/api/v1/venues/2830","location":{"city":"Missoula","state":"Montana","stateAbbrev":"MT"},"timeZone":{"id":"America/Denver","offset":-7,"tz":"MST"}},{"id":2831,"name":"Pohlman Field","link":"/api/v1/venues/2831","location":{"city":"Beloit","state":"Wisconsin","stateAbbrev":"WI"},"timeZone":{"id":"America/Chicago","offset":-6,"tz":"CST"}},{"id":2832,"name":"Prince George's Stadium","link":"/api/v1/venues/2832","location":{"city":"Bowie","state":"Maryland","stateAbbrev":"MD"},"timeZone":{"id":"America/New_York","offset":-5,"tz":"EST"}},{"id":2833,"name":"The Ballpark at Jackson","link":"/api/v1/venues/2833","location":{"city":"Jackson","state":"Tennessee","stateAbbrev":"TN"},"timeZone":{"id":"America/Chicago","offset":-6,"tz":"CST"}},{"id":2834,"name":"Ray Winder Field","link":"/api/v1/venues/2834","location":{"city":"Little Rock","state":"Arkansas","stateAbbrev":"AR"},"timeZone":{"id":"America/Chicago","offset":-6,"tz":"CST"}},{"id":2835,"name":"Recreation Park","link":"/api/v1/venues/2835","location":{"city":"Visalia","state":"California","stateAbbrev":"CA"},"timeZone":{"id":"America/Los_Angeles","offset":-8,"tz":"PST"}},{"id":2836,"name":"Richmond County Bank Ballpark","link":"/api/v1/venues/2836","location":{"city":"Staten Island","state":"New York","stateAbbrev":"NY"},"timeZone":{"id":"America/New_York","offset":-5,"tz":"EST"}},{"id":2837,"name":"Leidos Field at Ripken Stadium","link":"/api/v1/venues/2837","location":{"city":"Aberdeen","state":"Maryland","stateAbbrev":"MD"},"timeZone":{"id":"America/New_York","offset":-5,"tz":"EST"}},{"id":2838,"name":"Rosenblatt Stadium","link":"/api/v1/venues/2838","location":{"city":"Omaha","state":"Nebraska","stateAbbrev":"NE"},"timeZone":{"id":"America/Chicago","offset":-6,"tz":"CST"}},{"id":2839,"name":"Russell E. Diethrick Jr. Park","link":"/api/v1/venues/2839","location":{"city":"Jamestown","state":"New York","stateAbbrev":"NY"},"timeZone":{"id":"America/New_York","offset":-5,"tz":"EST"}},{"id":2840,"name":"Haley Toyota Field","link":"/api/v1/venues/2840","location":{"city":"Salem","state":"Virginia","stateAbbrev":"VA"},"timeZone":{"id":"America/New_York","offset":-5,"tz":"EST"}},{"id":2841,"name":"Sam Lynn Ballpark","link":"/api/v1/venues/2841","location":{"city":"Bakersfield","state":"California","stateAbbrev":"CA"},"timeZone":{"id":"America/Los_Angeles","offset":-8,"tz":"PST"}},{"id":2842,"name":"ARM & HAMMER Park","link":"/api/v1/venues/2842","location":{"city":"Trenton","state":"New Jersey","stateAbbrev":"NJ"},"timeZone":{"id":"America/New_York","offset":-5,"tz":"EST"}},{"id":2843,"name":"Chickasaw Bricktown Ballpark","link":"/api/v1/venues/2843","location":{"city":"Oklahoma City","state":"Oklahoma","stateAbbrev":"OK"},"timeZone":{"id":"America/Chicago","offset":-6,"tz":"CST"}},{"id":2844,"name":"Principal Park","link":"/api/v1/venues/2844","location":{"city":"Des Moines","state":"Iowa","stateAbbrev":"IA"},"timeZone":{"id":"America/Chicago","offset":-6,"tz":"CST"}},{"id":2845,"name":"Dodd Stadium","link":"/api/v1/venues/2845","location":{"city":"Norwich","state":"Connecticut","stateAbbrev":"CT"},"timeZone":{"id":"America/New_York","offset":-5,"tz":"EST"}},{"id":2846,"name":"UCHealth Park","link":"/api/v1/venues/2846","location":{"city":"Colorado Springs","state":"Colorado","stateAbbrev":"CO"},"timeZone":{"id":"America/Denver","offset":-7,"tz":"MST"}},{"id":2847,"name":"Skylands Park","link":"/api/v1/venues/2847","location":{"city":"Augusta ","state":"New Jersey","stateAbbrev":"NJ"},"timeZone":{"id":"America/New_York","offset":-5,"tz":"EST"}},{"id":2848,"name":"Smokies Stadium","link":"/api/v1/venues/2848","location":{"city":"Kodak","state":"Tennessee","stateAbbrev":"TN"},"timeZone":{"id":"America/New_York","offset":-5,"tz":"EST"}},{"id":2849,"name":"St. Lucie Sports Complex","link":"/api/v1/venues/2849","location":{"city":"St. Lucie","state":"Florida","stateAbbrev":"FL"},"timeZone":{"id":"America/New_York","offset":-5,"tz":"EST"}},{"id":2850,"name":"Four Winds Field","link":"/api/v1/venues/2850","location":{"city":"South Bend","state":"Indiana","stateAbbrev":"IN"},"timeZone":{"id":"America/Indiana/Indianapolis","offset":-5,"tz":"EST"}},{"id":2851,"name":"State Mutual Stadium","link":"/api/v1/venues/2851","location":{"city":"Rome","state":"Georgia","stateAbbrev":"GA"},"timeZone":{"id":"America/New_York","offset":-5,"tz":"EST"}},{"id":2852,"name":"121 Financial Ballpark","link":"/api/v1/venues/2852","location":{"city":"Jacksonville","state":"Florida","stateAbbrev":"FL"},"timeZone":{"id":"America/New_York","offset":-5,"tz":"EST"}},{"id":2853,"name":"The Diamond","link":"/api/v1/venues/2853","location":{"city":"Richmond","state":"Virginia","stateAbbrev":"VA"},"timeZone":{"id":"America/New_York","offset":-5,"tz":"EST"}},{"id":2854,"name":"LoanMart Field","link":"/api/v1/venues/2854","location":{"city":"Rancho Cucamonga","state":"California","stateAbbrev":"CA"},"timeZone":{"id":"America/Los_Angeles","offset":-8,"tz":"PST"}},{"id":2855,"name":"Tigertown","link":"/api/v1/venues/2855","location":{"city":"Lakeland","state":"Florida","stateAbbrev":"FL"},"timeZone":{"id":"America/New_York","offset":-5,"tz":"EST"}},{"id":2856,"name":"Clover Park","link":"/api/v1/venues/2856","location":{"city":"Port St. Lucie","state":"Florida","stateAbbrev":"FL","defaultCoordinates":{"latitude":27.32478,"longitude":-80.40471}},"timeZone":{"id":"America/New_York","offset":-5,"tz":"EST"}},{"id":2857,"name":"Perfect Game Field","link":"/api/v1/venues/2857","location":{"city":"Cedar Rapids","state":"Iowa","stateAbbrev":"IA"},"timeZone":{"id":"America/Chicago","offset":-6,"tz":"CST"}},{"id":2858,"name":"Victory Field","link":"/api/v1/venues/2858","location":{"city":"Indianapolis","state":"Indiana","stateAbbrev":"IN"},"timeZone":{"id":"America/Indiana/Indianapolis","offset":-5,"tz":"EST"}},{"id":2859,"name":"Volcanoes Stadium","link":"/api/v1/venues/2859","location":{"city":"Keizer","state":"Oregon","stateAbbrev":"OR"},"timeZone":{"id":"America/Los_Angeles","offset":-8,"tz":"PST"}},{"id":2860,"name":"Watt Powell Park","link":"/api/v1/venues/2860","location":{"city":"Charleston","state":"West Virginia","stateAbbrev":"WV"},"timeZone":{"id":"America/New_York","offset":-5,"tz":"EST"}},{"id":2861,"name":"Whataburger Field","link":"/api/v1/venues/2861","location":{"city":"Corpus Christi","state":"Texas","stateAbbrev":"TX"},"timeZone":{"id":"America/Chicago","offset":-6,"tz":"CST"}},{"id":2862,"name":"CenturyLink Sports Complex","link":"/api/v1/venues/2862","location":{"city":"Fort Myers","state":"Florida","stateAbbrev":"FL","defaultCoordinates":{"latitude":26.53789,"longitude":-81.84202}},"timeZone":{"id":"America/New_York","offset":-5,"tz":"EST"}},{"id":2863,"name":"Yakima County Stadium","link":"/api/v1/venues/2863","location":{"city":"Yakima","state":"Washington","stateAbbrev":"WA"},"timeZone":{"id":"America/Los_Angeles","offset":-8,"tz":"PST"}},{"id":2864,"name":"Yankee Complex","link":"/api/v1/venues/2864","location":{"city":"Tampa","state":"Florida","stateAbbrev":"FL"},"timeZone":{"id":"America/New_York","offset":-5,"tz":"EST"}},{"id":2865,"name":"Shrine on Airline","link":"/api/v1/venues/2865","location":{"city":"Metairie","state":"Louisiana","stateAbbrev":"LA"},"timeZone":{"id":"America/Chicago","offset":-6,"tz":"CST"}},{"id":2868,"name":"Northeast Delta Dental Stadium","link":"/api/v1/venues/2868","location":{"city":"Manchester","state":"New Hampshire","stateAbbrev":"NH"},"timeZone":{"id":"America/New_York","offset":-5,"tz":"EST"}},{"id":2909,"name":"Progress Energy Park","link":"/api/v1/venues/2909","location":{"city":"St. Petersburg","state":"Florida","stateAbbrev":"FL"},"timeZone":{"id":"America/New_York","offset":-5,"tz":"EST"}},{"id":426,"name":"Default Central (G)","link":"/api/v1/venues/426","location":{"city":"NA"},"timeZone":{"id":"America/Chicago","offset":-6,"tz":"CST"}},{"id":428,"name":"Default Pacific (G)","link":"/api/v1/venues/428","location":{"city":"NA"},"timeZone":{"id":"Pacific/Honolulu","offset":-8,"tz":"PST"}},{"id":441,"name":"Default Central European (G)","link":"/api/v1/venues/441","location":{"city":"NA"},"timeZone":{"id":"Europe/Rome","offset":1,"tz":"CET"}},{"id":454,"name":"Default AST (G)","link":"/api/v1/venues/454","location":{"city":"NA"},"timeZone":{"id":"America/Halifax","offset":-4,"tz":"AST"}},{"id":456,"name":"Default CST (G)","link":"/api/v1/venues/456","location":{"city":"NA"},"timeZone":{"id":"America/Chicago","offset":-6,"tz":"CST"}},{"id":3189,"name":"Dow Diamond","link":"/api/v1/venues/3189","location":{"city":"Midland","state":"Michigan","stateAbbrev":"MI"},"timeZone":{"id":"America/Detroit","offset":-5,"tz":"EST"}},{"id":3289,"name":"Citi Field","link":"/api/v1/venues/3289","location":{"city":"Flushing","state":"New York","stateAbbrev":"NY","defaultCoordinates":{"latitude":40.75753012,"longitude":-73.84559155}},"timeZone":{"id":"America/New_York","offset":-5,"tz":"EST"}},{"id":3290,"name":"Melching Field","link":"/api/v1/venues/3290","location":{"city":"Deland","state":"Florida","stateAbbrev":"FL"},"timeZone":{"id":"America/New_York","offset":-5,"tz":"EST"}},{"id":4271,"name":"Werner Park","link":"/api/v1/venues/4271","location":{"city":"Papillion","state":"Nebraska","stateAbbrev":"NE"},"timeZone":{"id":"America/Chicago","offset":-6,"tz":"CST"}},{"id":4309,"name":"JetBlue Park","link":"/api/v1/venues/4309","location":{"city":"Ft. Myers","state":"Florida","stateAbbrev":"FL","defaultCoordinates":{"latitude":26.55092,"longitude":-81.76225}},"timeZone":{"id":"America/New_York","offset":-5,"tz":"EST"}},{"id":3649,"name":"Mestsky Stadium","link":"/api/v1/venues/3649","location":{"city":"Bmo"},"timeZone":{"id":"Europe/Prague","offset":1,"tz":"CET"}},{"id":3650,"name":"Blansko Field","link":"/api/v1/venues/3650","location":{"city":"Blankso"},"timeZone":{"id":"Europe/Prague","offset":1,"tz":"CET"}},{"id":3651,"name":"Ostrava Field","link":"/api/v1/venues/3651","location":{"city":"Ostrava"},"timeZone":{"id":"Europe/Prague","offset":1,"tz":"CET"}},{"id":3652,"name":"Armin-Wolf Baseball Arena","link":"/api/v1/venues/3652","location":{"city":"Regensburg"},"timeZone":{"id":"Europe/Berlin","offset":1,"tz":"CET"}},{"id":3769,"name":"Parque Deportivo Colon","link":"/api/v1/venues/3769","location":{"city":"Xalapa","stateAbbrev":"MX"},"timeZone":{"id":"America/Mexico_City","offset":-6,"tz":"CST"}},{"id":3809,"name":"Camelback Ranch","link":"/api/v1/venues/3809","location":{"city":"Glendale","state":"Arizona","stateAbbrev":"AZ","defaultCoordinates":{"latitude":33.51434,"longitude":-112.29612}},"timeZone":{"id":"America/Phoenix","offset":-7,"tz":"MST"}},{"id":3810,"name":"Coolray Field","link":"/api/v1/venues/3810","location":{"city":"Lawrenceville","state":"Georgia","stateAbbrev":"GA"},"timeZone":{"id":"America/New_York","offset":-5,"tz":"EST"}},{"id":4069,"name":"Daniel Canonico Stadium","link":"/api/v1/venues/4069","location":{"city":"Barquisimeto","stateAbbrev":"VZ"},"timeZone":{"id":"America/Caracas","offset":-4,"tz":"VET"}},{"id":4089,"name":"BB&T Ballpark","link":"/api/v1/venues/4089","location":{"city":"Winston-Salem","state":"North Carolina","stateAbbrev":"NC"},"timeZone":{"id":"America/New_York","offset":-5,"tz":"EST"}},{"id":4189,"name":"Tianmu Baseball Stadium","link":"/api/v1/venues/4189","location":{"city":"Taipei","stateAbbrev":"TI"},"timeZone":{"id":"Asia/Taipei","offset":8,"tz":"CST"}},{"id":4190,"name":"Chengcing Lake Baseball Stadium","link":"/api/v1/venues/4190","location":{"city":"Kaohsiung","stateAbbrev":"TI"},"timeZone":{"id":"Asia/Taipei","offset":8,"tz":"CST"}},{"id":4209,"name":"Empire Ballpark","link":"/api/v1/venues/4209","location":{"city":"Perth"},"timeZone":{"id":"Australia/Perth","offset":8,"tz":"AWST"}},{"id":4210,"name":"Blacktown International Sportspark","link":"/api/v1/venues/4210","location":{"city":"Sydney"},"timeZone":{"id":"Australia/Sydney","offset":11,"tz":"AEDT"}},{"id":4211,"name":"Melbourne Ballpark","link":"/api/v1/venues/4211","location":{"city":"Melbourne"},"timeZone":{"id":"Australia/Melbourne","offset":11,"tz":"AEDT"}},{"id":4212,"name":"MIT Narrabundah Ballpark","link":"/api/v1/venues/4212","location":{"city":"Canberra"},"timeZone":{"id":"Australia/Sydney","offset":11,"tz":"AEDT"}},{"id":4213,"name":"Norwood Oval","link":"/api/v1/venues/4213","location":{"city":"Adelaide"},"timeZone":{"id":"Australia/Adelaide","offset":10,"tz":"ACDT"}},{"id":4214,"name":"RNA Showgrounds","link":"/api/v1/venues/4214","location":{"city":"Brisbane"},"timeZone":{"id":"Australia/Brisbane","offset":10,"tz":"AEST"}},{"id":4249,"name":"Salt River Fields at Talking Stick","link":"/api/v1/venues/4249","location":{"city":"Scottsdale","state":"Arizona","stateAbbrev":"AZ","defaultCoordinates":{"latitude":33.54523,"longitude":-111.88552}},"timeZone":{"id":"America/Phoenix","offset":-7,"tz":"MST"}},{"id":4369,"name":"Estadio Resurgimiento","link":"/api/v1/venues/4369","location":{"city":"Ciudad del Carmen","stateAbbrev":"MX"},"timeZone":{"id":"America/Merida","offset":-6,"tz":"CST"}},{"id":4549,"name":"Thomas Stadium","link":"/api/v1/venues/4549","location":{"city":"Johnson City","state":"Tennessee","stateAbbrev":"TN"},"timeZone":{"id":"America/New_York","offset":-5,"tz":"EST"}},{"id":2949,"name":"Parque Nelson Barrera Romellon","link":"/api/v1/venues/2949","location":{"city":"Campeche","stateAbbrev":"MX"},"timeZone":{"id":"America/Merida","offset":-6,"tz":"CST"}},{"id":2950,"name":"Estadio Monclova","link":"/api/v1/venues/2950","location":{"city":"Monclova","stateAbbrev":"MX"},"timeZone":{"id":"America/Monterrey","offset":-6,"tz":"CST"}},{"id":2951,"name":"Parque Lic. Eduardo Vasconcelos","link":"/api/v1/venues/2951","location":{"city":"Oaxaca","stateAbbrev":"MX"},"timeZone":{"id":"America/Mexico_City","offset":-6,"tz":"CST"}},{"id":2952,"name":"Estadio General Heriberto Jara Corona","link":"/api/v1/venues/2952","location":{"city":"Poza Rica","stateAbbrev":"MX"},"timeZone":{"id":"America/Mexico_City","offset":-6,"tz":"CST"}},{"id":2953,"name":"Parque Francisco I. Madero","link":"/api/v1/venues/2953","location":{"city":"Saltillo","stateAbbrev":"MX"},"timeZone":{"id":"America/Monterrey","offset":-6,"tz":"CST"}},{"id":2954,"name":"Estadio 20 de Noviembre","link":"/api/v1/venues/2954","location":{"city":"San Luis Potosi","stateAbbrev":"MX"},"timeZone":{"id":"America/Mexico_City","offset":-6,"tz":"CST"}},{"id":2955,"name":"Parque Centenario 27 de Febrero","link":"/api/v1/venues/2955","location":{"city":"Tabasco","stateAbbrev":"MX"},"timeZone":{"id":"America/Merida","offset":-6,"tz":"CST"}},{"id":2956,"name":"Estadio de la Revolucion","link":"/api/v1/venues/2956","location":{"city":"Laguna","stateAbbrev":"MX"},"timeZone":{"id":"America/Monterrey","offset":-6,"tz":"CST"}},{"id":2957,"name":"Estadio Chevron","link":"/api/v1/venues/2957","location":{"city":"Tijuana","stateAbbrev":"MX"},"timeZone":{"id":"America/Tijuana","offset":-8,"tz":"PST"}},{"id":2958,"name":"Estadio Universitario Beto Avila","link":"/api/v1/venues/2958","location":{"city":"Veracruz","stateAbbrev":"MX"},"timeZone":{"id":"America/Mexico_City","offset":-6,"tz":"CST"}},{"id":2959,"name":"Parque Kukulkan","link":"/api/v1/venues/2959","location":{"city":"Yucatan","stateAbbrev":"MX"},"timeZone":{"id":"America/Merida","offset":-6,"tz":"CST"}},{"id":3029,"name":"Estadio Universitario","link":"/api/v1/venues/3029","location":{"city":"Caracas","stateAbbrev":"VZ"},"timeZone":{"id":"America/Caracas","offset":-4,"tz":"AST"}},{"id":3030,"name":"Estadio Alfonso Carrasquel","link":"/api/v1/venues/3030","location":{"city":"Puerto La Cruz","stateAbbrev":"VZ"},"timeZone":{"id":"America/Caracas","offset":-4,"tz":"AST"}},{"id":3031,"name":"Estadio Luis Aparicio","link":"/api/v1/venues/3031","location":{"city":"Maracaibo","stateAbbrev":"VZ"},"timeZone":{"id":"America/Caracas","offset":-4,"tz":"AST"}},{"id":3032,"name":"Estadio Antonio Herrera Gutierrez","link":"/api/v1/venues/3032","location":{"city":"Barquisimeto","stateAbbrev":"VZ"},"timeZone":{"id":"America/Caracas","offset":-4,"tz":"AST"}},{"id":3033,"name":"Estadio Br. Julio Hernandez Molina","link":"/api/v1/venues/3033","location":{"city":"Acarigua","stateAbbrev":"VZ"},"timeZone":{"id":"America/Caracas","offset":-4,"tz":"AST"}},{"id":3069,"name":"Estadio Francisco Carranza Limon","link":"/api/v1/venues/3069","location":{"city":"Guasave","stateAbbrev":"MX"},"timeZone":{"id":"America/Mazatlan","offset":-7,"tz":"MST"}},{"id":3070,"name":"Hector Espino","link":"/api/v1/venues/3070","location":{"city":"Hermosillo","stateAbbrev":"MX"},"timeZone":{"id":"America/Hermosillo","offset":-7,"tz":"MST"}},{"id":3071,"name":"General Angel Flores","link":"/api/v1/venues/3071","location":{"city":"Culiacan","stateAbbrev":"MX"},"timeZone":{"id":"America/Mazatlan","offset":-7,"tz":"MST"}},{"id":3072,"name":"Tomas Oroz Gaytan","link":"/api/v1/venues/3072","location":{"city":"Cd. Obregon","stateAbbrev":"MX"},"timeZone":{"id":"America/Hermosillo","offset":-7,"tz":"MST"}},{"id":3073,"name":"Estadio Teodoro Mariscal","link":"/api/v1/venues/3073","location":{"city":"Mazatlan","stateAbbrev":"MX"},"timeZone":{"id":"America/Mazatlan","offset":-7,"tz":"MST"}},{"id":3074,"name":"Estadio Emilio Ibarra Almada","link":"/api/v1/venues/3074","location":{"city":"Los Mochis","stateAbbrev":"MX"},"timeZone":{"id":"America/Mazatlan","offset":-7,"tz":"MST"}},{"id":3075,"name":"Estadio Manuel Ciclon Echeverria","link":"/api/v1/venues/3075","location":{"city":"Navojoa","stateAbbrev":"MX"},"timeZone":{"id":"America/Hermosillo","offset":-7,"tz":"MST"}},{"id":3076,"name":"Estadio Farmacias Santa Monica","link":"/api/v1/venues/3076","location":{"city":"Mexicali","stateAbbrev":"MX"},"timeZone":{"id":"America/Tijuana","offset":-8,"tz":"PST"}},{"id":4429,"name":"Ron Tonkin Field","link":"/api/v1/venues/4429","location":{"city":"Hillsboro","state":"Oregon","stateAbbrev":"OR"},"timeZone":{"id":"America/Los_Angeles","offset":-8,"tz":"PST"}},{"id":4449,"name":"Estadio Mariano 'Mini' Meaux","link":"/api/v1/venues/4449","location":{"city":"Juncos","state":"Puerto Rico","stateAbbrev":"PR"},"timeZone":{"id":"America/Puerto_Rico","offset":-4,"tz":"AST"}},{"id":4450,"name":"Estadio Municipal Pedro Roman Melendez","link":"/api/v1/venues/4450","location":{"city":"Manati","state":"Puerto Rico","stateAbbrev":"PR"},"timeZone":{"id":"America/Puerto_Rico","offset":-4,"tz":"AST"}},{"id":2912,"name":"Medlar Field at Lubrano Park","link":"/api/v1/venues/2912","location":{"city":"State College","state":"Pennsylvania","stateAbbrev":"PA"},"timeZone":{"id":"America/New_York","offset":-5,"tz":"EST"}},{"id":5250,"name":"Allstate Arena","link":"/api/v1/venues/5250","location":{"city":"Rosemont","state":"Illinois","stateAbbrev":"IL"},"timeZone":{"id":"America/Chicago","offset":-6,"tz":"CST"}},{"id":5251,"name":"Blue Cross Arena","link":"/api/v1/venues/5251","location":{"city":"Rochester","state":"New York","stateAbbrev":"NY"},"timeZone":{"id":"America/New_York","offset":-5,"tz":"EST"}},{"id":5252,"name":"BMO Harris Bank Center","link":"/api/v1/venues/5252","location":{"city":"Rockford","state":"Illinois","stateAbbrev":"IL"},"timeZone":{"id":"America/Chicago","offset":-6,"tz":"CST"}},{"id":5253,"name":"Bojangles' Coliseum","link":"/api/v1/venues/5253","location":{"city":"Charlotte","state":"North Carolina","stateAbbrev":"NC"},"timeZone":{"id":"America/New_York","offset":-5,"tz":"EST"}},{"id":5254,"name":"Citizens Business Bank Arena","link":"/api/v1/venues/5254","location":{"city":"Ontario","state":"California","stateAbbrev":"CA"},"timeZone":{"id":"America/Los_Angeles","offset":-8,"tz":"PST"}},{"id":5255,"name":"Giant Center","link":"/api/v1/venues/5255","location":{"city":"Hershey","state":"Pennsylvania","stateAbbrev":"PA"},"timeZone":{"id":"America/New_York","offset":-5,"tz":"EST"}},{"id":5256,"name":"H-E-B Center at Cedar Park","link":"/api/v1/venues/5256","location":{"city":"Cedar Park","state":"Texas","stateAbbrev":"TX"},"timeZone":{"id":"America/Chicago","offset":-6,"tz":"CST"}},{"id":5257,"name":"MassMutual Center","link":"/api/v1/venues/5257","location":{"city":"Springfield","state":"Massachusetts","stateAbbrev":"MA"},"timeZone":{"id":"America/New_York","offset":-6,"tz":"CST"}},{"id":5258,"name":"Mohegan Sun Arena at Casey Plaza","link":"/api/v1/venues/5258","location":{"city":"Wilkes-Barre","state":"Pennsylvania","stateAbbrev":"PA"},"timeZone":{"id":"America/New_York","offset":-5,"tz":"EST"}},{"id":5259,"name":"Ricoh Coliseum","link":"/api/v1/venues/5259","location":{"city":"Toronto","state":"Ontario","stateAbbrev":"ON"},"timeZone":{"id":"America/Toronto","offset":-5,"tz":"EST"}},{"id":5260,"name":"Stockton Arena","link":"/api/v1/venues/5260","location":{"city":"Stockton","state":"California","stateAbbrev":"CA"},"timeZone":{"id":"America/Los_Angeles","offset":-8,"tz":"PST"}},{"id":5261,"name":"Times Union Center","link":"/api/v1/venues/5261","location":{"city":"Albany","state":"New York","stateAbbrev":"NY"},"timeZone":{"id":"America/New_York","offset":-5,"tz":"EST"}},{"id":5262,"name":"Tucson Convention Center","link":"/api/v1/venues/5262","location":{"city":"Tucson","state":"Arizona","stateAbbrev":"AZ"},"timeZone":{"id":"America/Phoenix","offset":-7,"tz":"MST"}},{"id":5263,"name":"Utica Memorial Auditorium","link":"/api/v1/venues/5263","location":{"city":"Utica","state":"New York","stateAbbrev":"NY"},"timeZone":{"id":"America/New_York","offset":-5,"tz":"EST"}},{"id":5264,"name":"UW-Milwaukee Panther Arena","link":"/api/v1/venues/5264","location":{"city":"Milwaukee","state":"Wisconsin","stateAbbrev":"WI"},"timeZone":{"id":"America/Chicago","offset":-6,"tz":"CST"}},{"id":5265,"name":"Valley View Casino Center","link":"/api/v1/venues/5265","location":{"city":"San Diego","state":"California","stateAbbrev":"CA"},"timeZone":{"id":"America/Los_Angeles","offset":-8,"tz":"PST"}},{"id":5266,"name":"Van Andel Arena","link":"/api/v1/venues/5266","location":{"city":"Grand Rapids","state":"Michigan","stateAbbrev":"MI"},"timeZone":{"id":"America/Detroit","offset":-5,"tz":"EST"}},{"id":5267,"name":"Veterans Memorial Arena","link":"/api/v1/venues/5267","location":{"city":"Binghamton","state":"New York","stateAbbrev":"NY"},"timeZone":{"id":"America/New_York","offset":-5,"tz":"EST"}},{"id":5268,"name":"Wells Fargo Arena","link":"/api/v1/venues/5268","location":{"city":"Des Moines","state":"Iowa","stateAbbrev":"IA"},"timeZone":{"id":"America/Chicago","offset":-6,"tz":"CST"}},{"id":3549,"name":"Alumni Field","link":"/api/v1/venues/3549","location":{"city":"Keene","state":"New Hampshire","stateAbbrev":"NH"},"timeZone":{"id":"America/New_York","offset":-5,"tz":"EST"}},{"id":3550,"name":"Cardines Field","link":"/api/v1/venues/3550","location":{"city":"Newport","state":"Rhode Island","stateAbbrev":"RI"},"timeZone":{"id":"America/New_York","offset":-5,"tz":"EST"}},{"id":3551,"name":"Frasier Field","link":"/api/v1/venues/3551","location":{"city":"Lynn","state":"Massachusetts","stateAbbrev":"MA"},"timeZone":{"id":"America/New_York","offset":-5,"tz":"EST"}},{"id":3552,"name":"Fuessenich Park","link":"/api/v1/venues/3552","location":{"city":"Torrington","state":"Connecticut","stateAbbrev":"CT"},"timeZone":{"id":"America/New_York","offset":-5,"tz":"EST"}},{"id":3554,"name":"J.P. Riddle Stadium","link":"/api/v1/venues/3554","location":{"city":"Fayetteville","state":"North Carolina","stateAbbrev":"NC"},"timeZone":{"id":"America/New_York","offset":-5,"tz":"EST"}},{"id":3555,"name":"Joe Wolfe Field","link":"/api/v1/venues/3555","location":{"city":"North Adams","state":"Massachusetts","stateAbbrev":"MA"},"timeZone":{"id":"America/New_York","offset":-5,"tz":"EST"}},{"id":3556,"name":"MacKenzie Stadium","link":"/api/v1/venues/3556","location":{"city":"Holyoke","state":"Massachusetts","stateAbbrev":"MA"},"timeZone":{"id":"America/New_York","offset":-5,"tz":"EST"}},{"id":3557,"name":"MLB Urban Youth Academy","link":"/api/v1/venues/3557","location":{"city":"Compton","state":"California","stateAbbrev":"CA"},"timeZone":{"id":"America/Los_Angeles","offset":-8,"tz":"PST"}},{"id":3558,"name":"USA Baseball National Training Complex","link":"/api/v1/venues/3558","location":{"city":"Cary","state":"North Carolina","stateAbbrev":"NC"},"timeZone":{"id":"America/New_York","offset":-5,"tz":"EST"}},{"id":3559,"name":"Wahconah Park","link":"/api/v1/venues/3559","location":{"city":"Pittsfield","state":"Massachusetts","stateAbbrev":"MA"},"timeZone":{"id":"America/New_York","offset":-5,"tz":"EST"}},{"id":3090,"name":"Fukuoka Yafuoku! Dome","link":"/api/v1/venues/3090","location":{"city":"Fukuoka","stateAbbrev":"JP"},"timeZone":{"id":"Asia/Tokyo","offset":9,"tz":"JST"}},{"id":3209,"name":"Estadio 18 de Marzo de 1938","link":"/api/v1/venues/3209","location":{"city":"Minatitlan","stateAbbrev":"MX"},"timeZone":{"id":"America/Mexico_City","offset":-6,"tz":"CST"}},{"id":3210,"name":"Estadio Chihuahua","link":"/api/v1/venues/3210","location":{"city":"Chihuahua","stateAbbrev":"MX"},"timeZone":{"id":"America/Hermosillo","offset":-7,"tz":"MST"}},{"id":4149,"name":"ONEOK Field","link":"/api/v1/venues/4149","location":{"city":"Tulsa","state":"Oklahoma","stateAbbrev":"OK"},"timeZone":{"id":"America/Chicago","offset":-6,"tz":"CST"}},{"id":4349,"name":"XinZhuang Stadium","link":"/api/v1/venues/4349","location":{"city":"New Taipei City","stateAbbrev":"TI"},"timeZone":{"id":"Asia/Taipei","offset":8,"tz":"CST"}},{"id":3329,"name":"Arvest Ballpark","link":"/api/v1/venues/3329","location":{"city":"Springdale","state":"Arkansas","stateAbbrev":"AR"},"timeZone":{"id":"America/Chicago","offset":-6,"tz":"CST"}},{"id":3349,"name":"Stadium Nueva Esparta","link":"/api/v1/venues/3349","location":{"city":"Porlamar","stateAbbrev":"VZ"},"timeZone":{"id":"America/Caracas","offset":-4,"tz":"AST"}},{"id":3449,"name":"English Field","link":"/api/v1/venues/3449","location":{"city":"Blacksburg","state":"Virginia","stateAbbrev":"VA"},"timeZone":{"id":"America/New_York","offset":-5,"tz":"EST"}},{"id":4049,"name":"Doak Field at Dail Park","link":"/api/v1/venues/4049","location":{"city":"Raleigh","state":"North Carolina","stateAbbrev":"NC"},"timeZone":{"id":"America/New_York","offset":-5,"tz":"EST"}},{"id":4050,"name":"Minges-Overton Baseball Complex","link":"/api/v1/venues/4050","location":{"city":"Greenville","state":"North Carolina","stateAbbrev":"NC"},"timeZone":{"id":"America/New_York","offset":-5,"tz":"EST"}},{"id":4051,"name":"Frazier Field","link":"/api/v1/venues/4051","location":{"city":"Louisburg","state":"North Carolina","stateAbbrev":"NC"},"timeZone":{"id":"America/New_York","offset":-5,"tz":"EST"}},{"id":4329,"name":"Blue Wahoos Stadium","link":"/api/v1/venues/4329","location":{"city":"Pensacola","state":"Florida","stateAbbrev":"FL"},"timeZone":{"id":"America/Chicago","offset":-6,"tz":"CST"}},{"id":4710,"name":"Estadio de Los Charros","link":"/api/v1/venues/4710","location":{"city":"Jalisco","stateAbbrev":"MX"},"timeZone":{"id":"America/Mexico_City","offset":-6,"tz":"CST"}},{"id":4970,"name":"Estadio de Beisbol 'Fray Nano'","link":"/api/v1/venues/4970","location":{"city":"Mexico City","stateAbbrev":"MX"},"timeZone":{"id":"America/Mexico_City","offset":-6,"tz":"CST"}},{"id":3249,"name":"Buck O'Neil Complex","link":"/api/v1/venues/3249","location":{"city":"Sarasota","state":"Florida","stateAbbrev":"FL"},"timeZone":{"id":"America/New_York","offset":-5,"tz":"EST"}},{"id":4529,"name":"Regions Field","link":"/api/v1/venues/4529","location":{"city":"Birmingham","state":"Alabama","stateAbbrev":"AL"},"timeZone":{"id":"America/Chicago","offset":-6,"tz":"CST"}},{"id":5240,"name":"Estadio Luis A. Canena Marquez","link":"/api/v1/venues/5240","location":{"city":"Aguadilla","state":"Puerto Rico","stateAbbrev":"PR"},"timeZone":{"id":"America/Puerto_Rico","offset":-4,"tz":"AST"}},{"id":5015,"name":"Air Canada Centre","link":"/api/v1/venues/5015","location":{"city":"Toronto"},"timeZone":{"id":"America/Toronto","offset":-3,"tz":"PST"}},{"id":5017,"name":"Amalie Arena","link":"/api/v1/venues/5017","location":{"city":"Tampa","state":"Florida","stateAbbrev":"FL"},"timeZone":{"id":"America/New_York","offset":-5,"tz":"EST"}},{"id":5018,"name":"American Airlines Arena","link":"/api/v1/venues/5018","location":{"city":"Miami","state":"Florida","stateAbbrev":"FL"},"timeZone":{"id":"America/New_York","offset":-5,"tz":"EST"}},{"id":5022,"name":"AT&T Center","link":"/api/v1/venues/5022","location":{"city":"San Antonio","state":"Texas","stateAbbrev":"TX"},"timeZone":{"id":"America/Chicago","offset":-6,"tz":"CST"}},{"id":5025,"name":"Bankers Life Fieldhouse","link":"/api/v1/venues/5025","location":{"city":"Indianapolis","state":"Indiana","stateAbbrev":"IN"},"timeZone":{"id":"America/Indiana/Indianapolis","offset":-5,"tz":"EST"}},{"id":5026,"name":"Barclays Center","link":"/api/v1/venues/5026","location":{"city":"New York","state":"New York","stateAbbrev":"NY"},"timeZone":{"id":"America/New_York","offset":-5,"tz":"EST"}},{"id":5027,"name":"BB&T Center","link":"/api/v1/venues/5027","location":{"city":"Sunrise","state":"Florida","stateAbbrev":"FL"},"timeZone":{"id":"America/New_York","offset":-5,"tz":"EST"}},{"id":5028,"name":"Bell Centre","link":"/api/v1/venues/5028","location":{"city":"Montreal"},"timeZone":{"id":"America/Toronto","offset":-3,"tz":"PST"}},{"id":5029,"name":"BMO Harris Bradley Center","link":"/api/v1/venues/5029","location":{"city":"Milwaukee","state":"Wisconsin","stateAbbrev":"WI"},"timeZone":{"id":"America/Chicago","offset":-6,"tz":"CST"}},{"id":5030,"name":"Bridgestone Arena","link":"/api/v1/venues/5030","location":{"city":"Nashville","state":"Tennessee","stateAbbrev":"TN"},"timeZone":{"id":"America/Chicago","offset":-5,"tz":"EST"}},{"id":5031,"name":"Canadian Tire Centre","link":"/api/v1/venues/5031","location":{"city":"Ottawa"},"timeZone":{"id":"America/Toronto","offset":-3,"tz":"PST"}},{"id":5033,"name":"Chesapeake Energy Arena","link":"/api/v1/venues/5033","location":{"city":"Oklahoma City","state":"Oklahoma","stateAbbrev":"OK"},"timeZone":{"id":"America/Chicago","offset":-6,"tz":"CST"}},{"id":5034,"name":"PPG Paints Arena","link":"/api/v1/venues/5034","location":{"city":"Pittsburgh","state":"Pennsylvania","stateAbbrev":"PA"},"timeZone":{"id":"America/New_York","offset":-5,"tz":"EST"}},{"id":5038,"name":"FedEx Forum","link":"/api/v1/venues/5038","location":{"city":"Memphis","state":"Tennessee","stateAbbrev":"TN"},"timeZone":{"id":"America/Chicago","offset":-6,"tz":"CST"}},{"id":5039,"name":"KeyBank Center","link":"/api/v1/venues/5039","location":{"city":"Buffalo","state":"New York","stateAbbrev":"NY"},"timeZone":{"id":"America/New_York","offset":-5,"tz":"EST"}},{"id":5042,"name":"Georgia Dome","link":"/api/v1/venues/5042","location":{"city":"Atlanta","state":"Georgia","stateAbbrev":"GA"},"timeZone":{"id":"America/New_York","offset":-5,"tz":"EST"}},{"id":5043,"name":"Gila River Arena","link":"/api/v1/venues/5043","location":{"city":"Glendale","state":"Arizona","stateAbbrev":"AZ"},"timeZone":{"id":"America/Phoenix","offset":-7,"tz":"MST"}},{"id":5044,"name":"Gillette Stadium","link":"/api/v1/venues/5044","location":{"city":"Foxborough","state":"Massachusetts","stateAbbrev":"MA"},"timeZone":{"id":"America/New_York","offset":-5,"tz":"EST"}},{"id":5045,"name":"Heinz Field","link":"/api/v1/venues/5045","location":{"city":"Pittsburgh","state":"Pennsylvania","stateAbbrev":"PA"},"timeZone":{"id":"America/New_York","offset":-5,"tz":"EST"}},{"id":5046,"name":"Honda Center","link":"/api/v1/venues/5046","location":{"city":"Anaheim","state":"California","stateAbbrev":"CA"},"timeZone":{"id":"America/Los_Angeles","offset":-8,"tz":"PST"}},{"id":5047,"name":"Joe Louis Arena","link":"/api/v1/venues/5047","location":{"city":"Detroit","state":"Michigan","stateAbbrev":"MI"},"timeZone":{"id":"America/Detroit","offset":-5,"tz":"EST"}},{"id":5054,"name":"Madison Square Garden","link":"/api/v1/venues/5054","location":{"city":"New York","state":"New York","stateAbbrev":"NY"},"timeZone":{"id":"America/New_York","offset":-5,"tz":"EST"}},{"id":5057,"name":"Moda Center","link":"/api/v1/venues/5057","location":{"city":"Portland","state":"Oregon","stateAbbrev":"OR"},"timeZone":{"id":"America/Los_Angeles","offset":-5,"tz":"EST"}},{"id":5058,"name":"Bell MTS Place","link":"/api/v1/venues/5058","location":{"city":"Winnipeg"},"timeZone":{"id":"America/Winnipeg","offset":-6,"tz":"CST"}},{"id":5059,"name":"Nationwide Arena","link":"/api/v1/venues/5059","location":{"city":"Columbus","state":"Ohio","stateAbbrev":"OH"},"timeZone":{"id":"America/New_York","offset":-5,"tz":"EST"}},{"id":5062,"name":"Oakland-Alameda County Coliseum Arena","link":"/api/v1/venues/5062","location":{"city":"Oakland","state":"California","stateAbbrev":"CA"},"timeZone":{"id":"America/Los_Angeles","offset":-8,"tz":"PST"}},{"id":5064,"name":"Pepsi Center","link":"/api/v1/venues/5064","location":{"city":"Denver","state":"Colorado","stateAbbrev":"CO"},"timeZone":{"id":"America/Denver","offset":-7,"tz":"MST"}},{"id":5066,"name":"PNC Arena","link":"/api/v1/venues/5066","location":{"city":"Raleigh","state":"North Carolina","stateAbbrev":"NC"},"timeZone":{"id":"America/New_York","offset":-5,"tz":"EST"}},{"id":5067,"name":"Prudential Center","link":"/api/v1/venues/5067","location":{"city":"Newark","state":"New Jersey","stateAbbrev":"NJ"},"timeZone":{"id":"America/New_York","offset":-5,"tz":"EST"}},{"id":5069,"name":"Quicken Loans Arena","link":"/api/v1/venues/5069","location":{"city":"Cleveland","state":"Ohio","stateAbbrev":"OH"},"timeZone":{"id":"America/New_York","offset":-5,"tz":"EST"}},{"id":5072,"name":"Northlands Coliseum","link":"/api/v1/venues/5072","location":{"city":"Edmonton"},"timeZone":{"id":"America/Edmonton","offset":-7,"tz":"MST"}},{"id":5073,"name":"Rogers Arena","link":"/api/v1/venues/5073","location":{"city":"Vancouver"},"timeZone":{"id":"America/Vancouver","offset":-3,"tz":"PST"}},{"id":5074,"name":"SAP Center","link":"/api/v1/venues/5074","location":{"city":"San Jose","state":"California","stateAbbrev":"CA"},"timeZone":{"id":"America/Los_Angeles","offset":-8,"tz":"PST"}},{"id":5075,"name":"Scotiabank Saddledome","link":"/api/v1/venues/5075","location":{"city":"Calgary"},"timeZone":{"id":"America/Edmonton","offset":-3,"tz":"PST"}},{"id":5076,"name":"Scottrade Center","link":"/api/v1/venues/5076","location":{"city":"Saint Louis","state":"Missouri","stateAbbrev":"MO"},"timeZone":{"id":"America/Chicago","offset":-6,"tz":"CST"}},{"id":5077,"name":"Sleep Train Arena","link":"/api/v1/venues/5077","location":{"city":"Sacramento","state":"California","stateAbbrev":"CA"},"timeZone":{"id":"America/Los_Angeles","offset":-8,"tz":"PST"}},{"id":5078,"name":"Smoothie King Center","link":"/api/v1/venues/5078","location":{"city":"New Orleans","state":"Louisiana","stateAbbrev":"LA"},"timeZone":{"id":"America/Chicago","offset":-6,"tz":"CST"}},{"id":5081,"name":"Staples Center","link":"/api/v1/venues/5081","location":{"city":"Los Angeles","state":"California","stateAbbrev":"CA"},"timeZone":{"id":"America/Los_Angeles","offset":-8,"tz":"PST"}},{"id":5083,"name":"Talking Stick Resort Arena","link":"/api/v1/venues/5083","location":{"city":"Phoenix","state":"Arizona","stateAbbrev":"AZ"},"timeZone":{"id":"America/Phoenix","offset":-7,"tz":"MST"}},{"id":5084,"name":"Target Center","link":"/api/v1/venues/5084","location":{"city":"Minneapolis","state":"Minnesota","stateAbbrev":"MN"},"timeZone":{"id":"America/Chicago","offset":-6,"tz":"CST"}},{"id":5085,"name":"TD Garden","link":"/api/v1/venues/5085","location":{"city":"Boston","state":"Massachusetts","stateAbbrev":"MA"},"timeZone":{"id":"America/New_York","offset":-5,"tz":"EST"}},{"id":5086,"name":"The Palace at Auburn Hills","link":"/api/v1/venues/5086","location":{"city":"Auburn Hills","state":"Michigan","stateAbbrev":"MI"},"timeZone":{"id":"America/Detroit","offset":-5,"tz":"EST"}},{"id":5087,"name":"Time Warner Arena","link":"/api/v1/venues/5087","location":{"city":"Charlotte","state":"North Carolina","stateAbbrev":"NC"},"timeZone":{"id":"America/New_York","offset":-5,"tz":"EST"}},{"id":5089,"name":"Toyota Center","link":"/api/v1/venues/5089","location":{"city":"Houston","state":"Texas","stateAbbrev":"TX"},"timeZone":{"id":"America/Chicago","offset":-6,"tz":"CST"}},{"id":4965,"name":"Monongalia County Ballpark","link":"/api/v1/venues/4965","location":{"city":"Granville","state":"West Virginia","stateAbbrev":"WV"},"timeZone":{"id":"America/Kentucky/Louisville","offset":-5,"tz":"EST"}},{"id":4990,"name":"Estadio BBVA Bancomer","link":"/api/v1/venues/4990","location":{"city":"Guadalupe","stateAbbrev":"MX"},"timeZone":{"id":"America/Monterrey","offset":-6,"tz":"CST"}},{"id":4705,"name":"Truist Park","link":"/api/v1/venues/4705","location":{"city":"Atlanta","state":"Georgia","stateAbbrev":"GA","defaultCoordinates":{"latitude":33.890672,"longitude":-84.467641}},"timeZone":{"id":"America/New_York","offset":-5,"tz":"EST"}},{"id":5092,"name":"United Center","link":"/api/v1/venues/5092","location":{"city":"Chicago","state":"Illinois","stateAbbrev":"IL"},"timeZone":{"id":"America/Chicago","offset":-6,"tz":"CST"}},{"id":5094,"name":"Verizon Center","link":"/api/v1/venues/5094","location":{"city":"Washington","state":"District of Columbia","stateAbbrev":"DC"},"timeZone":{"id":"America/New_York","offset":-5,"tz":"EST"}},{"id":5095,"name":"Vivint Smart Home Arena","link":"/api/v1/venues/5095","location":{"city":"Salt Lake City","state":"Utah","stateAbbrev":"UT"},"timeZone":{"id":"America/Denver","offset":-7,"tz":"MST"}},{"id":5096,"name":"Wells Fargo Center","link":"/api/v1/venues/5096","location":{"city":"Philadelphia","state":"Pennsylvania","stateAbbrev":"PA"},"timeZone":{"id":"America/New_York","offset":-5,"tz":"EST"}},{"id":5098,"name":"Xcel Energy Center","link":"/api/v1/venues/5098","location":{"city":"Saint Paul","state":"Minnesota","stateAbbrev":"MN"},"timeZone":{"id":"America/Chicago","offset":-6,"tz":"CST"}},{"id":5100,"name":"Rogers Place","link":"/api/v1/venues/5100","location":{"city":"Edmonton","state":"Alberta","stateAbbrev":"AB"},"timeZone":{"id":"America/Edmonton","offset":-7,"tz":"MST"}},{"id":5280,"name":"Golden 1 Center","link":"/api/v1/venues/5280","location":{"city":"Sacramento","state":"California","stateAbbrev":"CA"},"timeZone":{"id":"America/Los_Angeles","offset":-8,"tz":"PST"}},{"id":5325,"name":"Globe Life Field","link":"/api/v1/venues/5325","location":{"city":"Arlington","state":"Texas","stateAbbrev":"TX","defaultCoordinates":{"latitude":32.747299,"longitude":-97.081818}},"timeZone":{"id":"America/Chicago","offset":-6,"tz":"CST"}},{"id":5305,"name":"Kansas City Convention Center","link":"/api/v1/venues/5305","location":{"city":"Kansas City","state":"Missouri","stateAbbrev":"MO"},"timeZone":{"id":"America/Chicago","offset":-6,"tz":"CST"}},{"id":4980,"name":"Segra Park","link":"/api/v1/venues/4980","location":{"city":"Columbia","state":"South Carolina","stateAbbrev":"SC"},"timeZone":{"id":"America/New_York","offset":-5,"tz":"EST"}},{"id":4995,"name":"Estadio de los Tomateros","link":"/api/v1/venues/4995","location":{"city":"Culiacan","stateAbbrev":"MX"},"timeZone":{"id":"America/Mazatlan","offset":-7,"tz":"MST"}},{"id":4712,"name":"Sapporo Dome","link":"/api/v1/venues/4712","location":{"city":"Sapporo","stateAbbrev":"JP"},"timeZone":{"id":"Asia/Tokyo","offset":9,"tz":"JST"}},{"id":4713,"name":"Okinawa Cellular Stadium","link":"/api/v1/venues/4713","location":{"city":"Okinawa","stateAbbrev":"JP"},"timeZone":{"id":"Asia/Tokyo","offset":9,"tz":"JST"}},{"id":4960,"name":"MGM Park","link":"/api/v1/venues/4960","location":{"city":"Biloxi","state":"Mississippi","stateAbbrev":"MS"},"timeZone":{"id":"America/Chicago","offset":-6,"tz":"CST"}},{"id":5145,"name":"Little Caesars Arena","link":"/api/v1/venues/5145","location":{"city":"Detroit","state":"Michigan","stateAbbrev":"MI"},"timeZone":{"id":"America/Detroit","offset":-5,"tz":"EST"}},{"id":5150,"name":"Gocheok Sky Dome","link":"/api/v1/venues/5150","location":{"city":"Seoul"},"timeZone":{"id":"Asia/Seoul","offset":9,"tz":"KST"}},{"id":5270,"name":"Duke Energy Convention Center","link":"/api/v1/venues/5270","location":{"city":"Cincinnati","state":"Ohio","stateAbbrev":"OH"},"timeZone":{"id":"America/New_York","offset":-5,"tz":"EST"}},{"id":5000,"name":"The Ballpark of the Palm Beaches","link":"/api/v1/venues/5000","location":{"city":"West Palm Beach","state":"Florida","stateAbbrev":"FL","defaultCoordinates":{"latitude":26.75475,"longitude":-80.11316}},"timeZone":{"id":"America/New_York","offset":-5,"tz":"EST"}},{"id":5010,"name":"Fort Bragg Field","link":"/api/v1/venues/5010","location":{"city":"Fort Bragg","state":"North Carolina","stateAbbrev":"NC"},"timeZone":{"id":"America/New_York","offset":-5,"tz":"EST"}},{"id":5275,"name":"Hank McCamish Pavilion","link":"/api/v1/venues/5275","location":{"city":"Atlanta","state":"Georgia","stateAbbrev":"GA"},"timeZone":{"id":"America/New_York","offset":-5,"tz":"EST"}},{"id":5276,"name":"Mohegan Sun Arena","link":"/api/v1/venues/5276","location":{"city":"Uncasville","state":"Connecticut","stateAbbrev":"CT"},"timeZone":{"id":"America/New_York","offset":-6,"tz":"CST"}},{"id":5277,"name":"College Park Center","link":"/api/v1/venues/5277","location":{"city":"Arlington","state":"Texas","stateAbbrev":"TX"},"timeZone":{"id":"America/Chicago","offset":-5,"tz":"EST"}},{"id":5285,"name":"Jim Perry Stadium","link":"/api/v1/venues/5285","location":{"city":"Buies Creek","state":"North Carolina","stateAbbrev":"NC"},"timeZone":{"id":"America/New_York","offset":-5,"tz":"EST"}},{"id":5245,"name":"Estadio de los Yaquis","link":"/api/v1/venues/5245","location":{"city":"Cd. Obregon","stateAbbrev":"MX"},"timeZone":{"id":"America/Mexico_City","offset":-7,"tz":"MST"}},{"id":5461,"name":"Taoyuan International Stadium","link":"/api/v1/venues/5461","location":{"city":"Taoyuan City","stateAbbrev":"TI"},"timeZone":{"id":"Asia/Taipei","offset":8,"tz":"CST"}},{"id":5455,"name":"Toyota Field","link":"/api/v1/venues/5455","location":{"city":"Madison","state":"Alabama","stateAbbrev":"AL"},"timeZone":{"id":"America/Chicago","offset":-6,"tz":"CST"}},{"id":5376,"name":"North Harbour Stadium","link":"/api/v1/venues/5376","location":{"city":"Auckland"},"timeZone":{"id":"Asia/Taipei","offset":13,"tz":"NZDT"}},{"id":5435,"name":"IMG Academy","link":"/api/v1/venues/5435","location":{"city":"Bradenton","state":"Florida","stateAbbrev":"FL"},"timeZone":{"id":"America/New_York","offset":-5,"tz":"EST"}},{"id":5430,"name":"Magic Box","link":"/api/v1/venues/5430","location":{"city":"Los Angeles","state":"California","stateAbbrev":"CA"},"timeZone":{"id":"America/Los_Angeles","offset":-8,"tz":"PST"}},{"id":5480,"name":"New Gastonia Ballpark","link":"/api/v1/venues/5480","location":{"city":"Gastonia","state":"North Carolina","stateAbbrev":"NC"},"timeZone":{"id":"America/New_York","offset":-5,"tz":"EST"}},{"id":5355,"name":"Las Vegas Ballpark","link":"/api/v1/venues/5355","location":{"city":"Summerlin","state":"Nevada","stateAbbrev":"NV"},"timeZone":{"id":"America/Los_Angeles","offset":-8,"tz":"PST"}},{"id":5485,"name":"Regency Athletic Complex","link":"/api/v1/venues/5485","location":{"city":"Denver","state":"Colorado","stateAbbrev":"CO"},"timeZone":{"id":"America/Denver","offset":-7,"tz":"MST"}},{"id":5345,"name":"SRP Park","link":"/api/v1/venues/5345","location":{"city":"North Augusta","state":"South Carolina","stateAbbrev":"SC"},"timeZone":{"id":"America/New_York","offset":-5,"tz":"EST"}},{"id":3389,"name":"Dickey-Stephens Park","link":"/api/v1/venues/3389","location":{"city":"North Little Rock","state":"Arkansas","stateAbbrev":"AR"},"timeZone":{"id":"America/Chicago","offset":-6,"tz":"CST"}},{"id":3529,"name":"Duane Banks Field","link":"/api/v1/venues/3529","location":{"city":"Iowa City","state":"Iowa","stateAbbrev":"IA"},"timeZone":{"id":"America/Chicago","offset":-6,"tz":"CST"}},{"id":4715,"name":"First Tennessee Park","link":"/api/v1/venues/4715","location":{"city":"Nashville","state":"Tennessee","stateAbbrev":"TN"},"timeZone":{"id":"America/Chicago","offset":-6,"tz":"CST"}},{"id":3015,"name":"Les Murakami Stadium","link":"/api/v1/venues/3015","location":{"city":"Honolulu","state":"Hawaii","stateAbbrev":"HI"},"timeZone":{"id":"Pacific/Honolulu","offset":-10,"tz":"HT"}},{"id":3016,"name":"Hans L'Orange Field","link":"/api/v1/venues/3016","location":{"city":"Waipahu","state":"Hawaii","stateAbbrev":"HI"},"timeZone":{"id":"Pacific/Honolulu","offset":-10,"tz":"HT"}},{"id":3729,"name":"FIU Baseball Stadium","link":"/api/v1/venues/3729","location":{"city":"Miami","state":"Florida","stateAbbrev":"FL"},"timeZone":{"id":"America/New_York","offset":-5,"tz":"EST"}},{"id":4270,"name":"Generic VST","link":"/api/v1/venues/4270","location":{"city":"NA"},"timeZone":{"id":"America/Caracas","offset":-4,"tz":"VET"}},{"id":3832,"name":"AL City","link":"/api/v1/venues/3832","location":{"city":"AL City"},"timeZone":{"id":"America/New_York","offset":-5,"tz":"EST"}},{"id":3833,"name":"NL City","link":"/api/v1/venues/3833","location":{"city":"NL City"},"timeZone":{"id":"America/New_York","offset":-5,"tz":"EST"}},{"id":3834,"name":"Goodyear Ballpark","link":"/api/v1/venues/3834","location":{"city":"Goodyear","state":"Arizona","stateAbbrev":"AZ","defaultCoordinates":{"latitude":33.42892,"longitude":-112.39027}},"timeZone":{"id":"America/Phoenix","offset":-7,"tz":"MST"}},{"id":4611,"name":"Viticon Stadium","link":"/api/v1/venues/4611","location":{"city":"Newmarket"},"timeZone":{"id":"Australia/Brisbane","offset":10,"tz":"AEST"}},{"id":4700,"name":"Fowler Park and Cunningham Field","link":"/api/v1/venues/4700","location":{"city":"San Diego","state":"California","stateAbbrev":"CA"},"timeZone":{"id":"America/Los_Angeles","offset":-8,"tz":"PST"}},{"id":5190,"name":"Charlotte Coliseum","link":"/api/v1/venues/5190","location":{"city":"Charlotte","state":"North Carolina","stateAbbrev":"NC"},"timeZone":{"id":"America/New_York","offset":-5,"tz":"EST"}},{"id":5191,"name":"Memorial Coliseum","link":"/api/v1/venues/5191","location":{"city":"Portland","state":"Oregon","stateAbbrev":"OR"},"timeZone":{"id":"America/Los_Angeles","offset":-8,"tz":"PST"}},{"id":5192,"name":"Edgerton Park Arena","link":"/api/v1/venues/5192","location":{"city":"Rochester","state":"New York","stateAbbrev":"NY"},"timeZone":{"id":"America/New_York","offset":-5,"tz":"EST"}},{"id":5193,"name":"Rochester Community War Mem","link":"/api/v1/venues/5193","location":{"city":"Rochester","state":"New York","stateAbbrev":"NY"},"timeZone":{"id":"America/New_York","offset":-5,"tz":"EST"}},{"id":5194,"name":"Cincinnati Gardens","link":"/api/v1/venues/5194","location":{"city":"Cincinnati","state":"Ohio","stateAbbrev":"OH"},"timeZone":{"id":"America/New_York","offset":-5,"tz":"EST"}},{"id":5195,"name":"Municipal Auditorium","link":"/api/v1/venues/5195","location":{"city":"Kansas City","state":"Missouri","stateAbbrev":"MO"},"timeZone":{"id":"America/Chicago","offset":-6,"tz":"CST"}},{"id":5196,"name":"ARCO Arena","link":"/api/v1/venues/5196","location":{"city":"Sacramento","state":"California","stateAbbrev":"CA"},"timeZone":{"id":"America/Los_Angeles","offset":-8,"tz":"PST"}},{"id":5197,"name":"Dallas Memorial Auditorium","link":"/api/v1/venues/5197","location":{"city":"Dallas","state":"Texas","stateAbbrev":"TX"},"timeZone":{"id":"America/Chicago","offset":-6,"tz":"CST"}},{"id":5198,"name":"Tarrant County Convention Center","link":"/api/v1/venues/5198","location":{"city":"Ft. Worth","state":"Texas","stateAbbrev":"TX"},"timeZone":{"id":"America/Chicago","offset":-6,"tz":"CST"}},{"id":5199,"name":"HemisFair Arena","link":"/api/v1/venues/5199","location":{"city":"San Antonio","state":"Texas","stateAbbrev":"TX"},"timeZone":{"id":"America/Chicago","offset":-6,"tz":"CST"}},{"id":5200,"name":"Municipal Auditorium","link":"/api/v1/venues/5200","location":{"city":"New Orleans","state":"Louisiana","stateAbbrev":"LA"},"timeZone":{"id":"America/Chicago","offset":-6,"tz":"CST"}},{"id":5201,"name":"Salt Palace","link":"/api/v1/venues/5201","location":{"city":"Salt Lake City","state":"Utah","stateAbbrev":"UT"},"timeZone":{"id":"America/Denver","offset":-7,"tz":"MST"}},{"id":5202,"name":"International Amphitheatre","link":"/api/v1/venues/5202","location":{"city":"Chicago","state":"Illinois","stateAbbrev":"IL"},"timeZone":{"id":"America/Chicago","offset":-6,"tz":"CST"}},{"id":5203,"name":"Baltimore Civic Center","link":"/api/v1/venues/5203","location":{"city":"Baltimore","state":"Maryland","stateAbbrev":"MD"},"timeZone":{"id":"America/New_York","offset":-5,"tz":"EST"}},{"id":5207,"name":"North Side High School","link":"/api/v1/venues/5207","location":{"city":"Fort Wayne","state":"Michigan","stateAbbrev":"MI"},"timeZone":{"id":"America/Indiana/Indianapolis","offset":-5,"tz":"EST"}},{"id":5208,"name":"War Memorial Coliseum","link":"/api/v1/venues/5208","location":{"city":"Fort Wayne","state":"Michigan","stateAbbrev":"MI"},"timeZone":{"id":"America/Indiana/Indianapolis","offset":-5,"tz":"EST"}},{"id":5209,"name":"Olympic Stadium","link":"/api/v1/venues/5209","location":{"city":"Detroit","state":"Michigan","stateAbbrev":"MI"},"timeZone":{"id":"America/Detroit","offset":-5,"tz":"EST"}},{"id":5210,"name":"Cobo Arena","link":"/api/v1/venues/5210","location":{"city":"Detroit","state":"Michigan","stateAbbrev":"MI"},"timeZone":{"id":"America/Detroit","offset":-5,"tz":"EST"}},{"id":5211,"name":"Pontiac Silverdome","link":"/api/v1/venues/5211","location":{"city":"Pontiac","state":"Michigan","stateAbbrev":"MI"},"timeZone":{"id":"America/Detroit","offset":-5,"tz":"EST"}},{"id":5212,"name":"Philadelphia Arena","link":"/api/v1/venues/5212","location":{"city":"Philadelphia","state":"Pennsylvania","stateAbbrev":"PA"},"timeZone":{"id":"America/New_York","offset":-5,"tz":"EST"}},{"id":3489,"name":"Melaleuca Field","link":"/api/v1/venues/3489","location":{"city":"Idaho Falls","state":"Idaho","stateAbbrev":"ID"},"timeZone":{"id":"America/Boise","offset":-7,"tz":"MST"}},{"id":5166,"name":"Mile One Centre","link":"/api/v1/venues/5166","location":{"city":"St. John's","state":"Newfoundland","stateAbbrev":"NF"},"timeZone":{"id":"America/Halifax","offset":-3,"tz":"NST"}},{"id":5321,"name":"Estadio Francisco Villa","link":"/api/v1/venues/5321","location":{"city":"Durango","stateAbbrev":"MX"},"timeZone":{"id":"America/Mexico_City","offset":-6,"tz":"CST"}},{"id":3089,"name":"Kyocera Dome","link":"/api/v1/venues/3089","location":{"city":"Osaka","stateAbbrev":"JP"},"timeZone":{"id":"Asia/Tokyo","offset":9,"tz":"JST"}},{"id":4977,"name":"Giants Baseball Complex","link":"/api/v1/venues/4977","location":{"city":"Scottsdale","state":"Arizona","stateAbbrev":"AZ"},"timeZone":{"id":"America/Phoenix","offset":-7,"tz":"MST"}},{"id":5105,"name":"Winnipeg Arena","link":"/api/v1/venues/5105","location":{"city":"Winnipeg","state":"Manitoba","stateAbbrev":"MB"},"timeZone":{"id":"America/Winnipeg","offset":-6,"tz":"CST"}},{"id":5106,"name":"America West Arena","link":"/api/v1/venues/5106","location":{"city":"Phoenix","state":"Arizona","stateAbbrev":"AZ"},"timeZone":{"id":"America/Phoenix","offset":-7,"tz":"MST"}},{"id":5107,"name":"Boston Arena","link":"/api/v1/venues/5107","location":{"city":"Boston","state":"Massachusetts","stateAbbrev":"MA"},"timeZone":{"id":"America/New_York","offset":-5,"tz":"EST"}},{"id":5108,"name":"Boston Garden","link":"/api/v1/venues/5108","location":{"city":"Boston","state":"Massachusetts","stateAbbrev":"MA"},"timeZone":{"id":"America/New_York","offset":-5,"tz":"EST"}},{"id":5109,"name":"Buffalo Memorial Auditorium","link":"/api/v1/venues/5109","location":{"city":"Buffalo","state":"New York","stateAbbrev":"NY"},"timeZone":{"id":"America/New_York","offset":-5,"tz":"EST"}},{"id":5110,"name":"Omni Coliseum","link":"/api/v1/venues/5110","location":{"city":"Atlanta","state":"Georgia","stateAbbrev":"GA"},"timeZone":{"id":"America/New_York","offset":-5,"tz":"EST"}},{"id":5111,"name":"Stampede Corral","link":"/api/v1/venues/5111","location":{"city":"Calgary","state":"Alberta","stateAbbrev":"AB"},"timeZone":{"id":"America/Edmonton","offset":-7,"tz":"MST"}},{"id":5112,"name":"XL Center","link":"/api/v1/venues/5112","location":{"city":"Hartford","state":"Connecticut","stateAbbrev":"CT"},"timeZone":{"id":"America/New_York","offset":-5,"tz":"EST"}},{"id":5113,"name":"Greensboro Coliseum","link":"/api/v1/venues/5113","location":{"city":"Raleigh","state":"North Carolina","stateAbbrev":"NC"},"timeZone":{"id":"America/New_York","offset":-5,"tz":"EST"}},{"id":5114,"name":"Chicago Coliseum","link":"/api/v1/venues/5114","location":{"city":"Chicago","state":"Illinois","stateAbbrev":"IL"},"timeZone":{"id":"America/Chicago","offset":-6,"tz":"CST"}},{"id":5115,"name":"Chicago Stadium","link":"/api/v1/venues/5115","location":{"city":"Chicago","state":"Illinois","stateAbbrev":"IL"},"timeZone":{"id":"America/Chicago","offset":-6,"tz":"CST"}},{"id":5116,"name":"Colisee Pepsi","link":"/api/v1/venues/5116","location":{"city":"Quebec City","state":"Quebec","stateAbbrev":"QC"},"timeZone":{"id":"America/New_York","offset":-5,"tz":"EST"}},{"id":5117,"name":"McNichols Sports Arena","link":"/api/v1/venues/5117","location":{"city":"Denver","state":"Colorado","stateAbbrev":"CO"},"timeZone":{"id":"America/Denver","offset":-7,"tz":"MST"}},{"id":5118,"name":"Met Center","link":"/api/v1/venues/5118","location":{"city":"Minneapolis","state":"Minnesota","stateAbbrev":"MN"},"timeZone":{"id":"America/Chicago","offset":-6,"tz":"CST"}},{"id":5119,"name":"Reunion Arena","link":"/api/v1/venues/5119","location":{"city":"Dallas","state":"Texas","stateAbbrev":"TX"},"timeZone":{"id":"America/Chicago","offset":-6,"tz":"CST"}},{"id":5120,"name":"Detroit Olympia","link":"/api/v1/venues/5120","location":{"city":"Detroit","state":"Michigan","stateAbbrev":"MI"},"timeZone":{"id":"America/Detroit","offset":-5,"tz":"EST"}},{"id":5121,"name":"Miami Arena","link":"/api/v1/venues/5121","location":{"city":"Miami","state":"Florida","stateAbbrev":"FL"},"timeZone":{"id":"America/New_York","offset":-5,"tz":"EST"}},{"id":5122,"name":"Long Beach Arena","link":"/api/v1/venues/5122","location":{"city":"Los Angeles","state":"California","stateAbbrev":"CA"},"timeZone":{"id":"America/Los_Angeles","offset":-8,"tz":"PST"}},{"id":5123,"name":"The Forum","link":"/api/v1/venues/5123","location":{"city":"Los Angeles","state":"California","stateAbbrev":"CA"},"timeZone":{"id":"America/Los_Angeles","offset":-8,"tz":"PST"}},{"id":5124,"name":"Montreal Arena","link":"/api/v1/venues/5124","location":{"city":"Montreal","state":"Quebec","stateAbbrev":"QC"},"timeZone":{"id":"America/Toronto","offset":-5,"tz":"EST"}},{"id":5125,"name":"Jubilee Arena","link":"/api/v1/venues/5125","location":{"city":"Montreal","state":"Quebec","stateAbbrev":"QC"},"timeZone":{"id":"America/Toronto","offset":-5,"tz":"EST"}},{"id":5126,"name":"Mount Royal Arena","link":"/api/v1/venues/5126","location":{"city":"Montreal","state":"Quebec","stateAbbrev":"QC"},"timeZone":{"id":"America/Toronto","offset":-5,"tz":"EST"}},{"id":5127,"name":"Montreal Forum","link":"/api/v1/venues/5127","location":{"city":"Montreal","state":"Quebec","stateAbbrev":"QC"},"timeZone":{"id":"America/Toronto","offset":-5,"tz":"EST"}},{"id":5128,"name":"Kemper Arena","link":"/api/v1/venues/5128","location":{"city":"Kansas City","state":"Missouri","stateAbbrev":"MO"},"timeZone":{"id":"America/Chicago","offset":-6,"tz":"CST"}},{"id":5129,"name":"McNichols Arena","link":"/api/v1/venues/5129","location":{"city":"Denver","state":"Colorado","stateAbbrev":"CO"},"timeZone":{"id":"America/Denver","offset":-7,"tz":"MST"}},{"id":5130,"name":"Continental Airlines Arena","link":"/api/v1/venues/5130","location":{"city":"Newark","state":"New Jersey","stateAbbrev":"NJ"},"timeZone":{"id":"America/New_York","offset":-5,"tz":"EST"}},{"id":5131,"name":"Nassau Veterans Memorial Coliseum","link":"/api/v1/venues/5131","location":{"city":"Uniondale","state":"New York","stateAbbrev":"NY"},"timeZone":{"id":"America/Toronto","offset":-5,"tz":"EST"}},{"id":5132,"name":"Madison Square Garden (III)","link":"/api/v1/venues/5132","location":{"city":"New York","state":"New York","stateAbbrev":"NY"},"timeZone":{"id":"America/New_York","offset":-5,"tz":"EST"}},{"id":5133,"name":"Ottawa Civic Center","link":"/api/v1/venues/5133","location":{"city":"Ottawa","state":"Ontario","stateAbbrev":"ON"},"timeZone":{"id":"America/Toronto","offset":-5,"tz":"EST"}},{"id":5134,"name":"Spectrum","link":"/api/v1/venues/5134","location":{"city":"Philadelphia","state":"Pennsylvania","stateAbbrev":"PA"},"timeZone":{"id":"America/New_York","offset":-5,"tz":"EST"}},{"id":5135,"name":"Civic Arena","link":"/api/v1/venues/5135","location":{"city":"Pittsburgh","state":"Pennsylvania","stateAbbrev":"PA"},"timeZone":{"id":"America/New_York","offset":-5,"tz":"EST"}},{"id":5136,"name":"Cow Palace","link":"/api/v1/venues/5136","location":{"city":"San Jose","state":"California","stateAbbrev":"CA"},"timeZone":{"id":"America/Los_Angeles","offset":-8,"tz":"PST"}},{"id":5137,"name":"St. Louis Arena","link":"/api/v1/venues/5137","location":{"city":"St. Louis","state":"Missouri","stateAbbrev":"MO"},"timeZone":{"id":"America/Chicago","offset":-5,"tz":"EST"}},{"id":5138,"name":"Expo Hall","link":"/api/v1/venues/5138","location":{"city":"Tampa","state":"Florida","stateAbbrev":"FL"},"timeZone":{"id":"America/New_York","offset":-5,"tz":"EST"}},{"id":5139,"name":"Thunderdome","link":"/api/v1/venues/5139","location":{"city":"Tampa","state":"Florida","stateAbbrev":"FL"},"timeZone":{"id":"America/New_York","offset":-5,"tz":"EST"}},{"id":5140,"name":"Mutual Street Arena","link":"/api/v1/venues/5140","location":{"city":"Toronto","state":"Ontario","stateAbbrev":"ON"},"timeZone":{"id":"America/Toronto","offset":-5,"tz":"EST"}},{"id":5141,"name":"Maple Leafs Gardens","link":"/api/v1/venues/5141","location":{"city":"Toronto","state":"Ontario","stateAbbrev":"ON"},"timeZone":{"id":"America/Toronto","offset":-5,"tz":"EST"}},{"id":5142,"name":"Pacific Coliseum","link":"/api/v1/venues/5142","location":{"city":"Vancouver","state":"British Columbia","stateAbbrev":"BC"},"timeZone":{"id":"America/Vancouver","offset":-8,"tz":"PST"}},{"id":5143,"name":"Capital Centre","link":"/api/v1/venues/5143","location":{"city":"Washington","state":"District of Columbia","stateAbbrev":"DC"},"timeZone":{"id":"America/New_York","offset":-5,"tz":"EST"}},{"id":5144,"name":"Phillips Arena","link":"/api/v1/venues/5144","location":{"city":"Atlanta","state":"Georgia","stateAbbrev":"GA"},"timeZone":{"id":"America/New_York","offset":-5,"tz":"EST"}},{"id":4711,"name":"Koshien Stadium","link":"/api/v1/venues/4711","location":{"city":"Osaka","stateAbbrev":"JP"},"timeZone":{"id":"Asia/Tokyo","offset":9,"tz":"JST"}},{"id":5360,"name":"Sliwa Stadium","link":"/api/v1/venues/5360","location":{"city":"Daytona Beach","state":"Florida","stateAbbrev":"FL","defaultCoordinates":{"latitude":29.21081,"longitude":-81.02283}},"timeZone":{"id":"America/New_York","offset":-5,"tz":"EST"}},{"id":5440,"name":"Campbell's Field","link":"/api/v1/venues/5440","location":{"city":"Camden","state":"New Jersey","stateAbbrev":"NJ"},"timeZone":{"id":"America/New_York","offset":-5,"tz":"EST"}},{"id":5441,"name":"Cooper Park","link":"/api/v1/venues/5441","location":{"city":"Millersville","state":"Pennsylvania","stateAbbrev":"PA"},"timeZone":{"id":"America/New_York","offset":-5,"tz":"EST"}},{"id":5442,"name":"Riverfront Stadium","link":"/api/v1/venues/5442","location":{"city":"Newark","state":"New Jersey","stateAbbrev":"NJ"},"timeZone":{"id":"America/New_York","offset":-5,"tz":"EST"}},{"id":5444,"name":"The Ballpark at Harbor Yard","link":"/api/v1/venues/5444","location":{"city":"Bridgeport","state":"Connecticut","stateAbbrev":"CT"},"timeZone":{"id":"America/New_York","offset":-5,"tz":"EST"}},{"id":5350,"name":"Maestri Stadium","link":"/api/v1/venues/5350","location":{"city":"New Orleans","state":"Louisiana","stateAbbrev":"LA"},"timeZone":{"id":"America/Chicago","offset":-6,"tz":"CST"}},{"id":5351,"name":"Wesley Barrow Stadium","link":"/api/v1/venues/5351","location":{"city":"New Orleans","state":"Louisiana","stateAbbrev":"LA"},"timeZone":{"id":"America/Chicago","offset":-6,"tz":"CST"}},{"id":5370,"name":"Texas Live!","link":"/api/v1/venues/5370","location":{"city":"Arlington","state":"Texas","stateAbbrev":"TX"},"timeZone":{"id":"America/Chicago","offset":-6,"tz":"CST"}},{"id":5385,"name":"Mazda Zoom Zoom Stadium","link":"/api/v1/venues/5385","location":{"city":"Hiroshima","stateAbbrev":"JP","defaultCoordinates":{"latitude":34.4,"longitude":132.45}},"timeZone":{"id":"Asia/Tokyo","offset":9,"tz":"JST"}},{"id":5335,"name":"Estadio Evaristo 'Varo' Roldan","link":"/api/v1/venues/5335","location":{"city":"Guarbo","state":"Puerto Rico","stateAbbrev":"PR"},"timeZone":{"id":"America/Puerto_Rico","offset":-4,"tz":"AST"}},{"id":5336,"name":"Estadio Hermanos Marrero","link":"/api/v1/venues/5336","location":{"city":"Abonito","state":"Puerto Rico","stateAbbrev":"PR"},"timeZone":{"id":"America/Puerto_Rico","offset":-4,"tz":"AST"}},{"id":5400,"name":"SEGRA Stadium","link":"/api/v1/venues/5400","location":{"city":"Fayetteville","state":"North Carolina","stateAbbrev":"NC"},"timeZone":{"id":"America/New_York","offset":-5,"tz":"EST"}},{"id":5381,"name":"London Stadium","link":"/api/v1/venues/5381","location":{"city":"London","defaultCoordinates":{"latitude":51.50853,"longitude":-0.12574}},"timeZone":{"id":"Europe/London","offset":0,"tz":"BST"}},{"id":5410,"name":"Polar Park","link":"/api/v1/venues/5410","location":{"city":"Worcester","state":"Rhode Island","stateAbbrev":"RI"},"timeZone":{"id":"America/New_York","offset":-5,"tz":"EST"}},{"id":5490,"name":"Estadio Forum de La Guaira","link":"/api/v1/venues/5490","location":{"city":"Macuto","stateAbbrev":"VZ"},"timeZone":{"id":"America/Caracas","offset":-4,"tz":"AST"}},{"id":5445,"name":"Field of Dreams","link":"/api/v1/venues/5445","location":{"city":"Dyersville","state":"Iowa","stateAbbrev":"IA"},"timeZone":{"id":"America/Chicago","offset":-6,"tz":"CST"}},{"id":5495,"name":"Estadio Pedro Montanez","link":"/api/v1/venues/5495","location":{"city":"Cayey"},"timeZone":{"id":"America/Puerto_Rico","offset":-4,"tz":"AST"}},{"id":5425,"name":"Fredericksburg Baseball Stadium","link":"/api/v1/venues/5425","location":{"city":"Fredericksburg","state":"Virginia","stateAbbrev":"VA","defaultCoordinates":{"latitude":38.30318,"longitude":-77.46054}},"timeZone":{"id":"America/New_York","offset":-5,"tz":"PST"}},{"id":5415,"name":"Hodgetown","link":"/api/v1/venues/5415","location":{"city":"Amarillo","state":"Texas","stateAbbrev":"TX"},"timeZone":{"id":"America/Chicago","offset":-6,"tz":"CST"}},{"id":5390,"name":"Foxwoods Winter Weekend","link":"/api/v1/venues/5390","location":{"city":"Ledyard","state":"Connecticut","stateAbbrev":"CT","defaultCoordinates":{"latitude":41.4456,"longitude":-72.0182}},"timeZone":{"id":"America/New_York","offset":-5,"tz":"EST"}},{"id":5465,"name":"Morse Stadium","link":"/api/v1/venues/5465","location":{"city":"Henderson","state":"Nevada","stateAbbrev":"NV"},"timeZone":{"id":"America/Los_Angeles","offset":-8,"tz":"PST"}},{"id":5470,"name":"Blair Field","link":"/api/v1/venues/5470","location":{"city":"Long Beach","state":"California","stateAbbrev":"CA"},"timeZone":{"id":"America/Los_Angeles","offset":-8,"tz":"PST"}},{"id":5471,"name":"Boomers Stadium","link":"/api/v1/venues/5471","location":{"city":"Schaumburg","state":"Illinois","stateAbbrev":"IL"},"timeZone":{"id":"America/Chicago","offset":-6,"tz":"CST"}},{"id":5472,"name":"CHS Field","link":"/api/v1/venues/5472","location":{"city":"St. Paul","state":"Minnesota","stateAbbrev":"MN"},"timeZone":{"id":"America/Chicago","offset":-6,"tz":"CST"}},{"id":5473,"name":"Dedeaux Field","link":"/api/v1/venues/5473","location":{"city":"Los Angeles","state":"California","stateAbbrev":"CA"},"timeZone":{"id":"America/Los_Angeles","offset":-8,"tz":"PST"}},{"id":5474,"name":"Legacy Field at Prasco Park","link":"/api/v1/venues/5474","location":{"city":"Mason","state":"Ohio","stateAbbrev":"OH"},"timeZone":{"id":"America/New_York","offset":-5,"tz":"EST"}},{"id":5475,"name":"T-Bones Stadium","link":"/api/v1/venues/5475","location":{"city":"Kansas City","state":"Kansas","stateAbbrev":"KS"},"timeZone":{"id":"America/Chicago","offset":-6,"tz":"CST"}},{"id":5416,"name":"Regency Furniture Stadium","link":"/api/v1/venues/5416","location":{"city":"Waldorf","state":"Maryland","stateAbbrev":"MD"},"timeZone":{"id":"America/New_York","offset":-5,"tz":"EST"}},{"id":5417,"name":"BB&T Point Ballpark","link":"/api/v1/venues/5417","location":{"city":"High Point","state":"North Carolina","stateAbbrev":"NC"},"timeZone":{"id":"America/New_York","offset":-5,"tz":"EST"}},{"id":5418,"name":"TD Bank Ballpark","link":"/api/v1/venues/5418","location":{"city":"Bridgewater","state":"New Jersey","stateAbbrev":"NJ"},"timeZone":{"id":"America/New_York","offset":-5,"tz":"EST"}},{"id":5419,"name":"Bethpage Ballpark","link":"/api/v1/venues/5419","location":{"city":"Central Islip","state":"New York","stateAbbrev":"NY"},"timeZone":{"id":"America/New_York","offset":-5,"tz":"EST"}},{"id":5420,"name":"Clipper Magazine Stadium","link":"/api/v1/venues/5420","location":{"city":"Lancaster","state":"Pennsylvania","stateAbbrev":"PA"},"timeZone":{"id":"America/New_York","offset":-5,"tz":"EST"}},{"id":5421,"name":"Constellation Field","link":"/api/v1/venues/5421","location":{"city":"Sugar Land","state":"Texas","stateAbbrev":"TX"},"timeZone":{"id":"America/Chicago","offset":-6,"tz":"CST"}},{"id":5422,"name":"PeoplesBank Park","link":"/api/v1/venues/5422","location":{"city":"York","state":"Pennsylvania","stateAbbrev":"PA"},"timeZone":{"id":"America/New_York","offset":-5,"tz":"EST"}},{"id":5375,"name":"Geelong Baseball Centre","link":"/api/v1/venues/5375","location":{"city":"Geelong"},"timeZone":{"id":"Australia/Sydney","offset":11,"tz":"AEDT"}},{"id":5365,"name":"TD Ameritrade Park","link":"/api/v1/venues/5365","location":{"city":"Omaha","state":"Nebraska","stateAbbrev":"NE","defaultCoordinates":{"latitude":41.25861,"longitude":-95.93779}},"timeZone":{"id":"America/Chicago","offset":-6,"tz":"CST"}},{"id":5395,"name":"Nagoya Dome","link":"/api/v1/venues/5395","location":{"city":"Nagoya","defaultCoordinates":{"latitude":35.18147,"longitude":136.90641}},"timeZone":{"id":"Asia/Tokyo","offset":9,"tz":"JST"}},{"id":5405,"name":"Blue Lake Sports Park","link":"/api/v1/venues/5405","location":{"city":"Mount Gambier"},"timeZone":{"id":"Australia/Adelaide","offset":10,"tz":"ACDT"}},{"id":5380,"name":"CoolToday Park","link":"/api/v1/venues/5380","location":{"city":"North Port","state":"Florida","stateAbbrev":"FL","defaultCoordinates":{"latitude":27.04422,"longitude":-82.23593}},"timeZone":{"id":"America/New_York","offset":-5,"tz":"EST"}},{"id":5450,"name":"New Wichita ballpark","link":"/api/v1/venues/5450","location":{"city":"Wichita","state":"Kansas","stateAbbrev":"KS"},"timeZone":{"id":"America/Chicago","offset":-6,"tz":"CST"}},{"id":5340,"name":"Estadio Alfredo Harp Helu","link":"/api/v1/venues/5340","location":{"city":"Mexico City","stateAbbrev":"MX"},"timeZone":{"id":"America/Chicago","offset":-6,"tz":"CST"}},{"id":5330,"name":"Uni-Trade Stadium","link":"/api/v1/venues/5330","location":{"city":"Laredo","state":"Texas","stateAbbrev":"TX"},"timeZone":{"id":"America/Chicago","offset":-6,"tz":"CST"}}]}